{
  "gym": [
    {
      "geometry": {
        "location": {
          "lat": 59.354117,
          "lng": 17.999713
        },
        "viewport": {
          "northeast": {
            "lat": 59.3553445802915,
            "lng": 18.0010442802915
          },
          "southwest": {
            "lat": 59.35264661970849,
            "lng": 17.9983463197085
          }
        }
      },
      "icon": "https://maps.gstatic.com/mapfiles/place_api/icons/generic_business-71.png",
      "id": "4475fd8e03b38f24c2c6402241a6e9f3819a68e8",
      "name": "Drivkraft Solna",
      "opening_hours": {
        "open_now": true,
        "weekday_text": []
      },
      "photos": [
        {
          "height": 500,
          "html_attributions": [
            "<a href=\"https://maps.google.com/maps/contrib/112133906027819168484/photos\">Drivkraft Solna</a>"
          ],
          "photo_reference": "CmRYAAAAHY4d7eiEsRKdn72T5opWCv5mrB7cZQ-qJJVugsn3RRlWRlh5A-j7iy9GfNf-xaDppY3Ckb8fXdiUEoIyFF8rttvi-2YYaGb969InSYBmwcioMT8EbXsomkarCbJY-R-7EhB-L7VVDOqz8BmFoZzer-_SGhRRvgBkMPwa2bXz97WC_qCCezeSUg",
          "width": 768
        }
      ],
      "place_id": "ChIJo-ECgJOdX0YRStESpnFw_d0",
      "rating": 4.3,
      "reference": "CmRSAAAADN4ZtzTZeSuJCEDC_D0yQBFXp8AFsIm89ywJi1xDGS-ECC1z0dOpq-y18TqLefB4vDR1GDr48Wc2OfA0RXUc5M2VcuCDjXVgZL8W_Z4S73pxueBIPxGAUWrCLCgR9ZOhEhB9tzQtrLFdbxOYoGmL72FIGhTG6HyPj5QZ6oxPnEjqwRV1a4LTZg",
      "scope": "GOOGLE",
      "types": [
        "gym",
        "health",
        "point_of_interest",
        "establishment"
      ],
      "vicinity": "Storgatan 22, Solna"
    },
    {
      "geometry": {
        "location": {
          "lat": 59.360885,
          "lng": 17.980825
        },
        "viewport": {
          "northeast": {
            "lat": 59.36193488029151,
            "lng": 17.9820356302915
          },
          "southwest": {
            "lat": 59.35923691970849,
            "lng": 17.9793376697085
          }
        }
      },
      "icon": "https://maps.gstatic.com/mapfiles/place_api/icons/generic_business-71.png",
      "id": "629ed10e2502e214a4e137b23d4f7a84c31076a2",
      "name": "Westninefitness",
      "opening_hours": {
        "open_now": true,
        "weekday_text": []
      },
      "photos": [
        {
          "height": 1741,
          "html_attributions": [
            "<a href=\"https://maps.google.com/maps/contrib/112522135413755976048/photos\">erling akesson</a>"
          ],
          "photo_reference": "CmRYAAAAMl5JJuZvy38mWio2CHCK71IqIRscvKy0oo4SiRsuCnjiUsOkkDKtAR0ds0yIUJIkmb54P3VAlHzC_GdiVGABZuoYkMWzCRJzXcqvIrOHGKMLP4c6p6NhEpn3_zP7z6IaEhCvy3jFvYDk4-Tf5l4Rx-7-GhTvnbExa8ixtK4ZX6BgF3hBAkroqg",
          "width": 3086
        }
      ],
      "place_id": "ChIJA3FotcGdX0YR5zGdVbGQYjo",
      "reference": "CmRRAAAAGTIwPCK2e4TAvdcti2Ynt8AihYEA0aSqo6-O5N6lzKTthf7sTcFJzitqHbb5TEXYDrinIVr1P3stfP2HERYwT_-Ov17LIFmrhosLz1n1eB_ZfnJlt8oP_CZuwR_HlXTbEhBqqnquCKTDq-shqU1Y23ZIGhQ8hlsCeMOHTkmyJ5llK-ecJnogvg",
      "scope": "GOOGLE",
      "types": [
        "gym",
        "health",
        "point_of_interest",
        "establishment"
      ],
      "vicinity": "Englundavägen 7, Solna"
    },
    {
      "geometry": {
        "location": {
          "lat": 59.3594585,
          "lng": 17.9798353
        },
        "viewport": {
          "northeast": {
            "lat": 59.3607599302915,
            "lng": 17.9810748802915
          },
          "southwest": {
            "lat": 59.35806196970849,
            "lng": 17.9783769197085
          }
        }
      },
      "icon": "https://maps.gstatic.com/mapfiles/place_api/icons/generic_business-71.png",
      "id": "c19112252511cd8bd3aedb5d841763197ea53561",
      "name": "Actic Stockholm - Solna",
      "opening_hours": {
        "open_now": true,
        "weekday_text": []
      },
      "photos": [
        {
          "height": 668,
          "html_attributions": [
            "<a href=\"https://maps.google.com/maps/contrib/105243387167454537119/photos\">Actic Stockholm - Solna</a>"
          ],
          "photo_reference": "CmRYAAAAni_vhXcEZw7AHroPh4UInbxYnsJDzFwFEwnuIgZmtI07JoWqTOHuKeAVq049YivVoi2GcLIcldOCyVj2jRuRTgR1H4PaAMd4oLO4xy_dI-p6nVid3WOSTNpHhaZBlkofEhChVsXVR8k4ygdJdPYz2j-HGhQzSL7-6rINOg-CZbq4Fj6oYDXrVQ",
          "width": 1000
        }
      ],
      "place_id": "ChIJD27ajuidX0YRdNd1oPS2fB4",
      "rating": 2.3,
      "reference": "CmRRAAAAVjUKDM5b2fNkbjOBdtJp4u-KB-b4-elIECbm13UgF0ZCx-omTN-wrjTNVzq-fGGOm59kVuwrFAO7aGbZDzJ7pjpIGLgxncu3M8lg0Bx0fM-MH1lOJV2Su4o94W5OHw9FEhBlzQ0GjhfY6y_iZN5iAwXPGhRCckHOXM21JWOnORl3FjSZd8YT5Q",
      "scope": "GOOGLE",
      "types": [
        "gym",
        "spa",
        "health",
        "point_of_interest",
        "establishment"
      ],
      "vicinity": "Svetsarvägen 9B, Solna"
    },
    {
      "geometry": {
        "location": {
          "lat": 59.34661699999999,
          "lng": 17.9655422
        },
        "viewport": {
          "northeast": {
            "lat": 59.3480658302915,
            "lng": 17.9666782802915
          },
          "southwest": {
            "lat": 59.34536786970849,
            "lng": 17.9639803197085
          }
        }
      },
      "icon": "https://maps.gstatic.com/mapfiles/place_api/icons/generic_business-71.png",
      "id": "05e75c3defa546a90cb847a58e4c3d115ca13676",
      "name": "Mornington Stockholm Bromma",
      "opening_hours": {
        "open_now": true,
        "weekday_text": []
      },
      "photos": [
        {
          "height": 567,
          "html_attributions": [
            "<a href=\"https://maps.google.com/maps/contrib/102710754063636578234/photos\">Mornington Health Club</a>"
          ],
          "photo_reference": "CmRYAAAAydJRmujEdR2iGorL80c8iVNb-M5bEm0qLySCFusdAh-u0aai8YN4Ub6nd8aHrIukcKM974DQYlfpXQ4TkLF2bdSTvCO5wkVPTRGxg0eqRX5UVu6joG2ZQXboShI67v7zEhDlmT1x87aaxiB_ZQPj-hAKGhR-AlHEbXh0rJ1WziSCpvPZHD6jdw",
          "width": 850
        }
      ],
      "place_id": "ChIJr3RJj_mdX0YRhkBeBwL5l2c",
      "rating": 3.7,
      "reference": "CmRRAAAAmPGURLV6Kpobp1YrxDSHlMuN6jEgqzlqbQcXSikxUXU5ZGCSWnPmeBrm7CB6K7Ft-SJ_h99sT-oLRT8Rrn-qkr4KNY20qTotcZeRqQ4pHx0LHQycD-6wCCQq59n_Ok65EhDv1JJYIfJvAxwjwrU225f8GhT6xtOhFMZ0EwqFRpATFLIk4YnW5w",
      "scope": "GOOGLE",
      "types": [
        "gym",
        "health",
        "point_of_interest",
        "establishment"
      ],
      "vicinity": "Norrbyvägen 30, Bromma"
    },
    {
      "geometry": {
        "location": {
          "lat": 59.3623648,
          "lng": 17.9657683
        },
        "viewport": {
          "northeast": {
            "lat": 59.36347783029152,
            "lng": 17.96898565
          },
          "southwest": {
            "lat": 59.3607798697085,
            "lng": 17.96469585000001
          }
        }
      },
      "icon": "https://maps.gstatic.com/mapfiles/place_api/icons/generic_business-71.png",
      "id": "00f4e9bc8062359b2cdd2aa3b92d1b812dc3afab",
      "name": "SATS Signalfabriken",
      "opening_hours": {
        "open_now": true,
        "weekday_text": []
      },
      "photos": [
        {
          "height": 2988,
          "html_attributions": [
            "<a href=\"https://maps.google.com/maps/contrib/105430564295077754842/photos\">Коста Петан</a>"
          ],
          "photo_reference": "CmRYAAAAmvJVmlDe4fUpwFUzZIm-CfXTcQdAcDzvlaj4yOZCGVv2mpRNt0-oL_rAbbBGFcW27AOJLazik1cDmkYeDWmnGjKto1Hjf2C3SS3Z6cOHHug2ihK42FMfU5KZjSZKCC1KEhCe20V56nFNSZ5G32pIH8tKGhRUmysFRArk08gOpAo80X9B2rUrYA",
          "width": 5312
        }
      ],
      "place_id": "ChIJ24u2IOGdX0YR1VSH9Ko9VZg",
      "rating": 4.2,
      "reference": "CmRSAAAAmfr9rwgA6zsW2viID4tWvVhmZQ05Ydnrfjj8tna0e0b5zkGis6xqw70pAha-rHFnWf_iAaeMUv7C_qDioaUTGiW_rxYx6UxCHKqx4Xm8gPE3lxwoavjQxAiHSzPwqvBEEhD7Msp_LKSocCPL7NGg1PpUGhSiJs6yWGS_JdkfM6ARoyb2IgA_mQ",
      "scope": "GOOGLE",
      "types": [
        "gym",
        "health",
        "point_of_interest",
        "establishment"
      ],
      "vicinity": "Sundbybergs torg 1, Stockholm"
    },
    {
      "geometry": {
        "location": {
          "lat": 59.3498172,
          "lng": 17.9857992
        },
        "viewport": {
          "northeast": {
            "lat": 59.3509990302915,
            "lng": 17.9869733802915
          },
          "southwest": {
            "lat": 59.34830106970849,
            "lng": 17.9842754197085
          }
        }
      },
      "icon": "https://maps.gstatic.com/mapfiles/place_api/icons/generic_business-71.png",
      "id": "30144fb285ad94eb9da8f7befeadf69d486dd003",
      "name": "Fitness 24seven AB",
      "opening_hours": {
        "open_now": true,
        "weekday_text": []
      },
      "photos": [
        {
          "height": 2610,
          "html_attributions": [
            "<a href=\"https://maps.google.com/maps/contrib/113225572909793031707/photos\">Andreas Eriksson</a>"
          ],
          "photo_reference": "CmRYAAAAe76m_ofj8cS3JnhV4Rye_KQhy8M0tcWcqwuNUGS5VoVM5VKHxB841yJVSa-xpVrxKqvT-fam8GyHPG0HE28WlfKE4pzqA6Cd84-VD2VvyOgHWG4g-rMYmtOqnbUN-YrwEhCntKWUQNawacr8rF4IRX1yGhT3FLCx4bG9bjSJWvWaghuEJh6PPA",
          "width": 4640
        }
      ],
      "place_id": "ChIJX1JAh_KdX0YR4w6nShG7KsU",
      "rating": 5,
      "reference": "CmRSAAAAp7xUDdTOOqrByLr-7ANylhj-gMEIYSUbblG7Q1kKntyXIpTP1RZGggmcbYyZqpdAfA19_w2100ZaH6Buo9Eh7bTIfV_GEX7nkyOLr4kpPtn2J1sZ7W3WEEMiZZInCUE6EhAkjKh-DhXbNOl7dhLC7YS4GhSEiLR7wZvBcRtBRVYZz353M5byqg",
      "scope": "GOOGLE",
      "types": [
        "gym",
        "health",
        "point_of_interest",
        "establishment"
      ],
      "vicinity": "Storgatan 70, Solna"
    },
    {
      "geometry": {
        "location": {
          "lat": 59.3645785,
          "lng": 17.9657876
        },
        "viewport": {
          "northeast": {
            "lat": 59.3659576302915,
            "lng": 17.9671745302915
          },
          "southwest": {
            "lat": 59.36325966970849,
            "lng": 17.96447656970849
          }
        }
      },
      "icon": "https://maps.gstatic.com/mapfiles/place_api/icons/generic_business-71.png",
      "id": "c7b2f92f3455e59fdbc671dbb8bbd31653fc8a15",
      "name": "Fitness 24seven AB",
      "opening_hours": {
        "open_now": true,
        "weekday_text": []
      },
      "place_id": "ChIJARWlfuCdX0YRSkDoKfkqvQk",
      "rating": 3.6,
      "reference": "CmRRAAAAl8436TmmMt8gFPhpJk7aDnOkTlTuSW0TkmQuaQNTzGOp1tBx7ADepLjjA6HH3KBFNcx41qaehEhLdvO9T5l02mc0jSj-NN9OG0auTzAy89YCdUsxmZxtyZ_KoIYar1viEhAak0truMRkIjoEIODQaQB5GhQYfnCtzPhh0dh5fc2NH2yOn_VWag",
      "scope": "GOOGLE",
      "types": [
        "gym",
        "health",
        "point_of_interest",
        "establishment"
      ],
      "vicinity": "Vegagatan 5, Sundbyberg"
    },
    {
      "geometry": {
        "location": {
          "lat": 59.36099369999999,
          "lng": 17.972869
        },
        "viewport": {
          "northeast": {
            "lat": 59.3625828802915,
            "lng": 17.9745122802915
          },
          "southwest": {
            "lat": 59.35988491970848,
            "lng": 17.9718143197085
          }
        }
      },
      "icon": "https://maps.gstatic.com/mapfiles/place_api/icons/generic_business-71.png",
      "id": "005ae1a94f4028258a77efddb9ed1841488c361e",
      "name": "Fitness Club Hälsa & Friskvård i Sundbyberg AB",
      "opening_hours": {
        "open_now": true,
        "weekday_text": []
      },
      "place_id": "ChIJpWnkBOedX0YR1x0DGO1_pJs",
      "rating": 3,
      "reference": "CmRSAAAAJcdnclF1dgK9OCbcV74tiA-wEZYOScvIoq4MeyQhkcuDy8lRkfB3CLyFbzfkv7loR6yZRAih9e0eoke625iXS7JxkFssFttxZjW_KMhP7v3-JipIxkxhZ83GPaazU49uEhBws0y3OBngS1v51gr3e5QsGhS-3a63H0MKc3uJaDNlMFHhcOnkcg",
      "scope": "GOOGLE",
      "types": [
        "gym",
        "health",
        "point_of_interest",
        "establishment"
      ],
      "vicinity": "Sturegatan 7, Sundbyberg"
    },
    {
      "geometry": {
        "location": {
          "lat": 59.3544198,
          "lng": 18.000427
        },
        "viewport": {
          "northeast": {
            "lat": 59.35576793029151,
            "lng": 18.0018888302915
          },
          "southwest": {
            "lat": 59.3530699697085,
            "lng": 17.9991908697085
          }
        }
      },
      "icon": "https://maps.gstatic.com/mapfiles/place_api/icons/school-71.png",
      "id": "61f3a1a7e90fd437821a99ceb93eb21931dd398e",
      "name": "Rootlight HB",
      "place_id": "ChIJrdUifJSdX0YR2Sxh2DXqqWs",
      "reference": "CmRRAAAAoSFCI6F3qMTFMPYGtiRuZdZFMPzrffsX9DelAqV1cz2yaHNBSV7e_tBSKuQX4ZIhHUuR_gSh9kbnxfx2wIzOdyUWiWxXn6-X_AkNtCHwR_F3f4p_E_NgzAWWrSBWZBPSEhBxlE-5gLq5WQabjxyCBzxrGhQWJ6r4q0AXJBWpdODdIkiB3Jp7UQ",
      "scope": "GOOGLE",
      "types": [
        "gym",
        "health",
        "point_of_interest",
        "establishment"
      ],
      "vicinity": "Järnvägsgatan 2, Solna"
    },
    {
      "geometry": {
        "location": {
          "lat": 59.3556878,
          "lng": 17.9748399
        },
        "viewport": {
          "northeast": {
            "lat": 59.3569374302915,
            "lng": 17.9765672802915
          },
          "southwest": {
            "lat": 59.35423946970849,
            "lng": 17.9738693197085
          }
        }
      },
      "icon": "https://maps.gstatic.com/mapfiles/place_api/icons/school-71.png",
      "id": "4cf14bdc5d4a5178387d06f53eaba0ee915135ed",
      "name": "Gymnastikförbundet Öst",
      "opening_hours": {
        "open_now": true,
        "weekday_text": []
      },
      "photos": [
        {
          "height": 800,
          "html_attributions": [
            "<a href=\"https://maps.google.com/maps/contrib/109093379295424334413/photos\">Kristian Gunnarsson</a>"
          ],
          "photo_reference": "CmRYAAAAebZ_HqjN9-TWa4Y4owt9LJTC69HR97ap-yZBDQE8zPkxum1LrhPfKT-rioTy--xaC1XPg4TElxK3fgZ8CM-4nVSBjhUGoFG13z4eI5p1eicrQ9uT0X0qTotQWp4rkmDrEhA-Lzb9C5aRkaIoryq8wEC9GhSowIsBB32xZF7IJUWtaVnpbSoYIw",
          "width": 1200
        }
      ],
      "place_id": "ChIJoS_I9OidX0YRx7_etehWVS4",
      "reference": "CmRRAAAANJlwVR3xhonDK-sYXo-5AZind_WnmnvdCcuefcr4HeXBZnWpKhcdrCcoDwhZdlimsu1AB7x2cN9KKMty23nrCh9enRrPSf33ji28wxM6JyNP5EHy8PvrvzHs1K516Ho3EhDwsyzvxDq579nSTWVs2_ZAGhS3J5ERt_2SvIIYUsilwZaR5Z06iA",
      "scope": "GOOGLE",
      "types": [
        "gym",
        "health",
        "point_of_interest",
        "establishment"
      ],
      "vicinity": "Vretenvägen 4, Solna"
    },
    {
      "geometry": {
        "location": {
          "lat": 59.34988310000001,
          "lng": 17.9858759
        },
        "viewport": {
          "northeast": {
            "lat": 59.3510311802915,
            "lng": 17.9870147802915
          },
          "southwest": {
            "lat": 59.34833321970849,
            "lng": 17.9843168197085
          }
        }
      },
      "icon": "https://maps.gstatic.com/mapfiles/place_api/icons/generic_business-71.png",
      "id": "5e0ca90695008396cf95c19a7047881b60a4d406",
      "name": "Fitness24Seven",
      "opening_hours": {
        "open_now": true,
        "weekday_text": []
      },
      "photos": [
        {
          "height": 500,
          "html_attributions": [
            "<a href=\"https://maps.google.com/maps/contrib/107383598892534196101/photos\">Fitness24Seven</a>"
          ],
          "photo_reference": "CmRYAAAAPRwCSjnUImfB4QOghkcpnayAVgYkX2vBHuTegfEtOlVssPQvQ5pHpmbcWB7WhigmqVgNyuG19_hjzoC9zirqdgYtHYvn4ysMzaV7tQ-DdgH38v1k4itq19Ei0NSEYdxIEhAcZQq4JDTElDqnHc4vPS5VGhRhUEe1Gr6r-JfuWJYcdfiBmLT9mg",
          "width": 500
        }
      ],
      "place_id": "ChIJh5bCfvKdX0YRFAImETKNlRw",
      "reference": "CmRRAAAAdtQsS_xJ6GM63EMB3dXDTS4pEfhWwO_jWsfB_0S1HB9ttmRZo9O9jJetvxIbPR93fAHpKJntk_xDLMSm7fgFaSD7S5SgsgbAfCpgfwWjqfMoK4NztT3EddXlWn7cusbTEhAdf1qxCmnofAoHkm4Q0lCfGhQ0awKFsuyQpVIfCHGTiSP7MJ8ZXA",
      "scope": "GOOGLE",
      "types": [
        "gym",
        "health",
        "point_of_interest",
        "establishment"
      ],
      "vicinity": "Storgatan 70, Solna"
    },
    {
      "geometry": {
        "location": {
          "lat": 59.3558944,
          "lng": 17.9738213
        },
        "viewport": {
          "northeast": {
            "lat": 59.35723693029151,
            "lng": 17.9750571802915
          },
          "southwest": {
            "lat": 59.35453896970849,
            "lng": 17.9723592197085
          }
        }
      },
      "icon": "https://maps.gstatic.com/mapfiles/place_api/icons/generic_business-71.png",
      "id": "9c79c80a4b354c6161ed9659a70571b5d2a24b3d",
      "name": "Fitness24Seven",
      "opening_hours": {
        "open_now": true,
        "weekday_text": []
      },
      "photos": [
        {
          "height": 1080,
          "html_attributions": [
            "<a href=\"https://maps.google.com/maps/contrib/108072361284317210839/photos\">Fitness24Seven</a>"
          ],
          "photo_reference": "CmRYAAAAJTvObdY5g2tlkoflRVljORpFNrwVe-wsr8VJwZMhmHNzN6QImIXaCQS_F21s4mmHaiw6f1d0TRb16DYxyZt8MX2yxBemg_lB7tx5YwoV0lkWJaHdcBmqnr_NmHLfRE_PEhA_zEJVljL5HotOtATc110hGhSAsgnmDX7_3R4FBJmjr_YWCvlHqA",
          "width": 1920
        }
      ],
      "place_id": "ChIJ3X3KhOWdX0YRFOvlmhDt5N8",
      "rating": 4,
      "reference": "CmRSAAAAA2Czus817aKSrm03fy-QCcTvB117lQF79sBZEEXMr3ZAo1BcDBqYhfnOa2piCQk8mL53jdU-4kK_Tdk3LxSC8u6D_LJK72dvBmPbEvP9G_mCCMBsStY_kWU26I-m5W7ZEhDtPf8RHl_IFsscDLiPEAjIGhSILEopp-Ri1GsV4m14lZcI3srTjA",
      "scope": "GOOGLE",
      "types": [
        "gym",
        "health",
        "point_of_interest",
        "establishment"
      ],
      "vicinity": "Torggatan 8, Solna"
    },
    {
      "geometry": {
        "location": {
          "lat": 59.35597480000001,
          "lng": 17.9738031
        },
        "viewport": {
          "northeast": {
            "lat": 59.35731733029151,
            "lng": 17.9750392302915
          },
          "southwest": {
            "lat": 59.35461936970849,
            "lng": 17.9723412697085
          }
        }
      },
      "icon": "https://maps.gstatic.com/mapfiles/place_api/icons/generic_business-71.png",
      "id": "51f7fb6638be8cc5b615fbe0445ace83d403438b",
      "name": "Fitness 24seven AB",
      "opening_hours": {
        "open_now": true,
        "weekday_text": []
      },
      "place_id": "ChIJAYnSk-WdX0YRLItTYznIOUA",
      "rating": 3,
      "reference": "CmRRAAAATy8hC896Bfnq5seaxGjOBcK-SCYb0SQflBKQMNahFw0YsBM_hb0lwf6Px0zV4jEWGNjIjb_FK69oFW0cTw-2dIW__Qy84ecWnnKffJPD5t-78bswSSJkQR-3ZEJoGE35EhBK8E-ezCZFMkGVVSdDCIdKGhQZvAtl7JQ_NXHQUMs50TnIohubBA",
      "scope": "GOOGLE",
      "types": [
        "gym",
        "health",
        "point_of_interest",
        "establishment"
      ],
      "vicinity": "Torggatan 8, Solna"
    },
    {
      "geometry": {
        "location": {
          "lat": 59.35594,
          "lng": 17.9887122
        },
        "viewport": {
          "northeast": {
            "lat": 59.3573063802915,
            "lng": 17.9903014802915
          },
          "southwest": {
            "lat": 59.35460841970849,
            "lng": 17.98760351970849
          }
        }
      },
      "icon": "https://maps.gstatic.com/mapfiles/place_api/icons/generic_business-71.png",
      "id": "fd44046a6b0a607726375e8ee3ae610031ce421a",
      "name": "Forca Fighting mma klubb",
      "opening_hours": {
        "open_now": false,
        "weekday_text": []
      },
      "place_id": "ChIJsXtZi-udX0YRNsRNBJ6xqPM",
      "rating": 5,
      "reference": "CmRSAAAAO4tkp3nr2jYuadgwgYhd4KE87fPzTocn5lyCUXOGwhxxX0t79AVAuZylAgSnn2WArONXMiIpd1YZnCL5c8utVMbMuHcU76RAWCL6R3dbtaEF5T4MadN76WYx_MJC0-3mEhB--PfWWrlnF97AKufm_Q6zGhT1kwR_lK35LgbHOXUF7LZSwmS6iA",
      "scope": "GOOGLE",
      "types": [
        "gym",
        "health",
        "point_of_interest",
        "establishment"
      ],
      "vicinity": "Ankdammsgatan 23, Solna"
    },
    {
      "geometry": {
        "location": {
          "lat": 59.35643049999999,
          "lng": 17.9886056
        },
        "viewport": {
          "northeast": {
            "lat": 59.35779268029151,
            "lng": 17.9901870302915
          },
          "southwest": {
            "lat": 59.3550947197085,
            "lng": 17.9874890697085
          }
        }
      },
      "icon": "https://maps.gstatic.com/mapfiles/place_api/icons/generic_business-71.png",
      "id": "950cfe7f997631646e4848ba26a16f3819aec7df",
      "name": "SOLNA SHOTOKAN KARATEKLUBB",
      "opening_hours": {
        "open_now": false,
        "weekday_text": []
      },
      "place_id": "ChIJM_dV7eudX0YRY14O6763EkU",
      "reference": "CmRRAAAAF6g3Qd5iD31WsFgZFfuenATsHyDnWfNII4CqgOPWgYmqNJX4Vhbf9wBuZaoJMiw9XylT_T_OSQ32_RQzoYipeneWXsVbH1MEerp76QFENcQPTkafSy695bx5k6ybrE56EhDm8T_yJadXfw21ieoHQHZ4GhTl4Omvkq0OA3NphDd_FG_AwcYfQw",
      "scope": "GOOGLE",
      "types": [
        "gym",
        "health",
        "point_of_interest",
        "establishment"
      ],
      "vicinity": "Ankdammsgatan 23, Solna"
    },
    {
      "geometry": {
        "location": {
          "lat": 59.3586912,
          "lng": 17.9820979
        },
        "viewport": {
          "northeast": {
            "lat": 59.36020563029151,
            "lng": 17.9831688302915
          },
          "southwest": {
            "lat": 59.3575076697085,
            "lng": 17.98047086970849
          }
        }
      },
      "icon": "https://maps.gstatic.com/mapfiles/place_api/icons/generic_business-71.png",
      "id": "4cacaddf78c83237abffd717256e1dbd08a71818",
      "name": "Actic",
      "place_id": "ChIJe1KLa0svXEYRg0Xo9kla958",
      "rating": 5,
      "reference": "CmRSAAAAJqfWW4H2wHzEBiLWp68uvGb03F0uPEZ14IHor13s3H_60eHBS1MQZMC_mnv4iW7DjPorXXOmWR03Lh9iy78a2b3pjIZjeWkR8__VrNr-8J01Tzjsfdb1x6rw5XpASzj5EhBR8P0_lbBAdxBIiBbAeU35GhRyN_Lp-_DAzfrSv74nc791Tkn49g",
      "scope": "GOOGLE",
      "types": [
        "gym",
        "health",
        "point_of_interest",
        "establishment"
      ],
      "vicinity": "Smidesvägen 12, Solna"
    },
    {
      "geometry": {
        "location": {
          "lat": 59.359481,
          "lng": 17.9798829
        },
        "viewport": {
          "northeast": {
            "lat": 59.36077168029151,
            "lng": 17.9810978302915
          },
          "southwest": {
            "lat": 59.35807371970849,
            "lng": 17.9783998697085
          }
        }
      },
      "icon": "https://maps.gstatic.com/mapfiles/place_api/icons/generic_business-71.png",
      "id": "57871fdec8257a78e9edbe05b92e67399b6832bb",
      "name": "Itrim",
      "opening_hours": {
        "open_now": true,
        "weekday_text": []
      },
      "photos": [
        {
          "height": 500,
          "html_attributions": [
            "<a href=\"https://maps.google.com/maps/contrib/102764776276495991916/photos\">Itrim</a>"
          ],
          "photo_reference": "CmRYAAAA9_HfSFLMRwHkwMCbfQcrvyV2pnOKrQPKAICi9EyppGO6EUS5wdGResUqRY3gAuWn1ld0thAanGe_djdXOtqsd2DAG2NqFh14LjUgUNVfc3EM9VJfpwnkealv6VInYSdvEhCD_cmHCSykFJrnxAf867TMGhQb6japg6Qj-cwUtybm4XGWkdIkZg",
          "width": 500
        }
      ],
      "place_id": "ChIJoS_I9OidX0YRpyGybOA-goA",
      "rating": 1,
      "reference": "CmRSAAAAqWQCiIJ4nujTXRp7VrXS-LoUzQpfdzdT518OCm4UF11u8hjEnXe8oXl7ZK07wdWSDL8KZujh2Pe4kPWvMAG-albMMEL17dBD39zqgLvGk3y5kJ8vvFI4JejmeIgvLBsFEhBva0gx_BePHF4aNOshmgqPGhQF562PcartXewxh7kaZo_6ji2AiQ",
      "scope": "GOOGLE",
      "types": [
        "gym",
        "health",
        "point_of_interest",
        "establishment"
      ],
      "vicinity": "Svetsarvägen 13, Solna"
    },
    {
      "geometry": {
        "location": {
          "lat": 59.359142,
          "lng": 17.968224
        },
        "viewport": {
          "northeast": {
            "lat": 59.3604603302915,
            "lng": 17.9694810302915
          },
          "southwest": {
            "lat": 59.3577623697085,
            "lng": 17.9667830697085
          }
        }
      },
      "icon": "https://maps.gstatic.com/mapfiles/place_api/icons/generic_business-71.png",
      "id": "c9cfdd4fcafbe1e7a010909e0022c2751fa0e908",
      "name": "World Class Sundbyberg",
      "opening_hours": {
        "open_now": true,
        "weekday_text": []
      },
      "photos": [
        {
          "height": 250,
          "html_attributions": [
            "<a href=\"https://maps.google.com/maps/contrib/115792876627140292592/photos\">World Class Sundbyberg</a>"
          ],
          "photo_reference": "CmRYAAAAtPpjFksc5fYJ4qOM3Jc2VqJOlK_mvHI5q24CQgCOATWKwiLCLrtUk96UguWZvfiw-zY8upC-L7x-54k4d3nZOVVWkUaOOta4WpziMuW3tGfDOvnqv2wZt6g7yntDz_2-EhDMNrrDOr-A5dVxCdaj83uEGhQIt3QTq53_ja5o3PSeM0NKe0TRzQ",
          "width": 250
        }
      ],
      "place_id": "ChIJ_9OJruadX0YRd0-EXu8f3NE",
      "reference": "CmRSAAAA6N1e90ugrCZmvLgPVv-nFEcgQBfadYVyzzuR8YD-q0UFZC0nWSHbPjSw_UXFIsrWUo4KTcnvI1n7tFnne6V9JsOPourF1R9XWkvsv26OIHo228eqknoI70wkUhxZpbDTEhChnG2_ZkNifYG9f2wd64akGhR7bDPQgO_W6b-J7RWRRdYAWZSmgA",
      "scope": "GOOGLE",
      "types": [
        "gym",
        "health",
        "point_of_interest",
        "establishment"
      ],
      "vicinity": "Humblegatan 22, Sundbyberg"
    },
    {
      "geometry": {
        "location": {
          "lat": 59.3537924,
          "lng": 17.9968858
        },
        "viewport": {
          "northeast": {
            "lat": 59.3551662802915,
            "lng": 17.9983362302915
          },
          "southwest": {
            "lat": 59.35246831970849,
            "lng": 17.9956382697085
          }
        }
      },
      "icon": "https://maps.gstatic.com/mapfiles/place_api/icons/generic_business-71.png",
      "id": "ec836368ce66743f724ffc53e8e815e38a0d3dc2",
      "name": "Fitness24Seven",
      "opening_hours": {
        "open_now": true,
        "weekday_text": []
      },
      "photos": [
        {
          "height": 3024,
          "html_attributions": [
            "<a href=\"https://maps.google.com/maps/contrib/112089011399638150248/photos\">André Costa</a>"
          ],
          "photo_reference": "CmRYAAAAo9NZ1URLazarllZLCbKvvkVGOqITlOeTSdbU82Tnm5uYbQ5DMiacNAZMPovv7RNqET3qs-sSZoWsORWRG5ZMy4BOvqsWYtViSLLqK3BDwZN0EaES_cQs9xCMgF2bZXWJEhA5lffKqtQ4DzOx0rIJ1IYKGhSKFgabUaECSxxUuEs3pcq0zXO2zQ",
          "width": 4032
        }
      ],
      "place_id": "ChIJIV0CaJOdX0YRmcx4Sqg5V4I",
      "reference": "CmRSAAAAydUZ5nHbS9Gq0vs1q8p1OQl36r_lNM3jOJ5TrUCGZhV-PRWl23rER41Q3ijufz27ZtGvs9Z4gVSX1MnWmO-NtloRrWWZVhGl29f6kgRm259f8c-B2Ibv-D6o6rhF_NkUEhB-8ysuG7PW-ycwqjT4_7i2GhTZ72r6q92enBS9KTckm3VN29lNZg",
      "scope": "GOOGLE",
      "types": [
        "gym",
        "health",
        "point_of_interest",
        "establishment"
      ],
      "vicinity": "Huvudstagatan 4, Solna"
    },
    {
      "geometry": {
        "location": {
          "lat": 59.361909,
          "lng": 17.9791585
        },
        "viewport": {
          "northeast": {
            "lat": 59.3632572802915,
            "lng": 17.9805159302915
          },
          "southwest": {
            "lat": 59.36055931970849,
            "lng": 17.9778179697085
          }
        }
      },
      "icon": "https://maps.gstatic.com/mapfiles/place_api/icons/generic_business-71.png",
      "id": "01e03aec32e1409a4ee637902365ba611a518f93",
      "name": "Fitness Art",
      "place_id": "ChIJO80H5OedX0YRfkrAzFkRz-k",
      "reference": "CmRSAAAAtQRv3OQoUiVMkrpXhGQK6hw4oDhL8BUK11QLlcMKh_14jdGV1MY3Aiu1-dEMELJ-LRZdsGzuvX9OIkmNRzu1ltHf7V0hg1Z8o7vPer6g71Eu6jWwD6wy3skFT47JFP4FEhA_BGsMICa5_3aHiSUs76A4GhSXtBe9mcqAkKNqMTc4N6wSCPzUzg",
      "scope": "GOOGLE",
      "types": [
        "gym",
        "health",
        "point_of_interest",
        "establishment"
      ],
      "vicinity": "Vintergatan 4, Sundbyberg"
    },
    {
      "geometry": {
        "location": {
          "lat": 59.3507585,
          "lng": 17.9597711
        },
        "viewport": {
          "northeast": {
            "lat": 59.35207868029151,
            "lng": 17.9609584802915
          },
          "southwest": {
            "lat": 59.3493807197085,
            "lng": 17.9582605197085
          }
        }
      },
      "icon": "https://maps.gstatic.com/mapfiles/place_api/icons/generic_business-71.png",
      "id": "7eb3c17bbcb5296e0e39ef51e1afb3c1017dd3e2",
      "name": "För Dig Gym",
      "opening_hours": {
        "open_now": true,
        "weekday_text": []
      },
      "photos": [
        {
          "height": 3024,
          "html_attributions": [
            "<a href=\"https://maps.google.com/maps/contrib/109282381385718996398/photos\">Alexander Gefwert</a>"
          ],
          "photo_reference": "CmRYAAAACN_gjjBB1JQ6tWvJzFMcqTBUNhEVNCW-ONBH5KoTl3bUCi6XsqD_z4aIxD0XNe1qywz8fTmOGzA5yPUTvCj-TZjTJpHHtio3_PyROWICFsCQrnY5EKDj9vFVD0N9mfwzEhDMIUiS58MAY6JZwq1WqE7MGhRmPTpGL5aS-Egr_rTah8_OU0x0Qg",
          "width": 3024
        }
      ],
      "place_id": "ChIJqeLsYvydX0YRHaPNo8JCEIs",
      "rating": 5,
      "reference": "CmRSAAAAsxDzC62FSluCUkj9WFOGdyGHAaQxWixqMUgTiUB_YcABQ1C9owNpoomyorEDeC3IecP3IJIPeynflNXBHvApPpvmWG8j1_EQ-hFhugFYonffrS-KTxCHBW2nr6fJr3aQEhDTYLynW49a5F30J8K2UeVMGhTc6LZO8OuDDPU6ikLhsl2UbNBqbw",
      "scope": "GOOGLE",
      "types": [
        "gym",
        "health",
        "point_of_interest",
        "establishment"
      ],
      "vicinity": "Ranhammarsvägen 20M, Bromma"
    },
    {
      "geometry": {
        "location": {
          "lat": 59.35413399999999,
          "lng": 17.999757
        },
        "viewport": {
          "northeast": {
            "lat": 59.35535228029151,
            "lng": 18.0010869302915
          },
          "southwest": {
            "lat": 59.3526543197085,
            "lng": 17.9983889697085
          }
        }
      },
      "icon": "https://maps.gstatic.com/mapfiles/place_api/icons/generic_business-71.png",
      "id": "4c802282b06275d8117f146b97b30eb68ac5e80f",
      "name": "Drivkraft Solna",
      "opening_hours": {
        "open_now": true,
        "weekday_text": []
      },
      "photos": [
        {
          "height": 891,
          "html_attributions": [
            "<a href=\"https://maps.google.com/maps/contrib/108883598350789648964/photos\">Drivkraft Solna</a>"
          ],
          "photo_reference": "CmRYAAAA3SbWfkzyi8RUBvFIODqicpGAhALBRAQt2Yh6SA7KryZRwSLpqKndvEXNphB4g0IgYNrkyWOPYPbnwkZV2qpW3d_m2ijrOprz0XLe0YjI-hs_bIpiKFk2zklIyZL9eW-qEhAGIwF4bYmI3zVUnAOujM1JGhT5DrLbaa39Ifrxz7xthJfqVqa9Vw",
          "width": 1300
        }
      ],
      "place_id": "ChIJx68FgJSdX0YRZMlzpCgb2yE",
      "rating": 5,
      "reference": "CmRRAAAA-bWXgOV4HnVK2gy6m1lHGPgVXSE5vCrUjxIK0zC6QS1e8RaJBifIfDObK0JF9wk4wCGk4zDe3ac9BKO0Tk56EnVZQPadpy4eZLzDXx1uyHO3Bfkqpko2yvcdfkvnpoWZEhCq-ynPqyW8Bq2miurTebQHGhTeYIcXunw_ydob8dvKA8v-olRF_g",
      "scope": "GOOGLE",
      "types": [
        "gym",
        "health",
        "point_of_interest",
        "establishment"
      ],
      "vicinity": "Storgatan 22, Solna"
    },
    {
      "geometry": {
        "location": {
          "lat": 59.3560453,
          "lng": 17.9597929
        },
        "viewport": {
          "northeast": {
            "lat": 59.35730223029151,
            "lng": 17.9617586802915
          },
          "southwest": {
            "lat": 59.3546042697085,
            "lng": 17.9590607197085
          }
        }
      },
      "icon": "https://maps.gstatic.com/mapfiles/place_api/icons/generic_business-71.png",
      "id": "cdc7c676b8f270180d95fd1979be3b32e3c79708",
      "name": "Nordic Wellness Bromma",
      "opening_hours": {
        "open_now": true,
        "weekday_text": []
      },
      "photos": [
        {
          "height": 1080,
          "html_attributions": [
            "<a href=\"https://maps.google.com/maps/contrib/116629433764127584561/photos\">Robert Fried</a>"
          ],
          "photo_reference": "CmRYAAAAQbTqKaANpRWDLc4fofoq9iRa2tlmr-TKug6XcU7-KsWLXAsRRCc9D2f4DGr0PpTX6rKS1DbCrfP4Zep4i7mldaA6zlYIAOz6Fi8JlKW5uYXvFPL3nZosKaFmlXldp3EvEhB6d8VBnOXgj2Nhz5dLDB7RGhQt4Y7WyTzXbMBpVZzp1ZdWncVNxw",
          "width": 1080
        }
      ],
      "place_id": "ChIJkxHS4uKdX0YRyjRIZgqAcng",
      "rating": 4.2,
      "reference": "CmRRAAAAf53x7FsM4QBAPw4OzGZuztTQmV3MGHhP0yXS-owPvRs3aAQ6YDtNo759p5oSithWyf3NrGLDX_82ZUOg6HD9GxskRseizIBfAlApOLHuX8Eza88naTFzjj5xuvsmTNvCEhD98u90sXYBlWt2UhHDOrTtGhR2AQJv-BVKb2aH-BMdlHHDxmCNVA",
      "scope": "GOOGLE",
      "types": [
        "gym",
        "health",
        "point_of_interest",
        "establishment"
      ],
      "vicinity": "Karlsbodavägen 17D, Bromma"
    },
    {
      "geometry": {
        "location": {
          "lat": 59.3616215,
          "lng": 17.9674221
        },
        "viewport": {
          "northeast": {
            "lat": 59.36294308029151,
            "lng": 17.9688871802915
          },
          "southwest": {
            "lat": 59.36024511970849,
            "lng": 17.9661892197085
          }
        }
      },
      "icon": "https://maps.gstatic.com/mapfiles/place_api/icons/generic_business-71.png",
      "id": "df7b13b9c764905bd9f00adceddb65d657e71261",
      "name": "SATS Sverige (servicekontoret)",
      "photos": [
        {
          "height": 720,
          "html_attributions": [
            "<a href=\"https://maps.google.com/maps/contrib/100351927623215497596/photos\">SATS Sverige (servicekontoret)</a>"
          ],
          "photo_reference": "CmRYAAAA97fyKSfVOBReXlFdT4iIVjVXGv74sGU9uazISVbaoOOHYhJ-0xfh735D3j4XeRWFZIo8V3cgnA8c7PeQ_7F_-1vg5dieB41p63BcoFL1Fd0O9y1B2SI2sOZ6O9lKDJghEhB8XIUB15-jttRsh22gcvZqGhTvqiPU6sg53f9atOxqv2yXFyXGCA",
          "width": 720
        }
      ],
      "place_id": "ChIJm3ZOJ-GdX0YR28OjU4Nf-KI",
      "reference": "CmRSAAAAn2N0h81PVLKXi3Gg8nUDX_0ViXGGjxFyxZ7L2YUKQQMYVGkelPCz4Opnr5X-qch1E_SalepHN9mFkvsnilAi7O5jjPd-GceWjwfn-BtkRg604iZ_XMVLdvWn_AyQl52DEhCuhW0_oD0hLM2z9bmrCf9CGhSuvuOwGR-abvVXqHdmpWLdVQzDSA",
      "scope": "GOOGLE",
      "types": [
        "gym",
        "health",
        "point_of_interest",
        "establishment"
      ],
      "vicinity": "Sundbybergs torg 1H, Sundbyberg"
    },
    {
      "geometry": {
        "location": {
          "lat": 59.36449,
          "lng": 17.975159
        },
        "viewport": {
          "northeast": {
            "lat": 59.3658866802915,
            "lng": 17.9765661302915
          },
          "southwest": {
            "lat": 59.36318871970849,
            "lng": 17.9738681697085
          }
        }
      },
      "icon": "https://maps.gstatic.com/mapfiles/place_api/icons/generic_business-71.png",
      "id": "3407954091065874f6eec309020351376fdcb642",
      "name": "SATS Tuletorget",
      "opening_hours": {
        "open_now": true,
        "weekday_text": []
      },
      "photos": [
        {
          "height": 720,
          "html_attributions": [
            "<a href=\"https://maps.google.com/maps/contrib/113660017518731126525/photos\">SATS Tuletorget</a>"
          ],
          "photo_reference": "CmRYAAAA_B255CHX_IANK-ic_2ByMHX8ElDVQOVmyDxoRI_5XhSyY47i0nNq9-w09NgiH2ccz9LqC5XdrqINhbVf3xJE4DuFCbN-R0ngwUyoUP8z78P78Ym6BiQsLBAsdBp6bgiZEhBhO9mvDYW13uHLMJh0z5k3GhQOc9-b1sRTwNrY_RiRpvHuSOlyJQ",
          "width": 720
        }
      ],
      "place_id": "ChIJ40-KkN2dX0YRi_R2Dg6nXPo",
      "rating": 4.5,
      "reference": "CmRSAAAAumHH-WLKXKFGmP9b9L13_r2emdLmLyehSsouIbWAsc3PBr41NDy9Tdg8EeY6Kme3dLyneUvNCKNcSvB6eoU3KQTOlA59RqxcufHFhi2SUR_DMLWNZ5lCpQYDU3n86m2yEhCZiSC1hszP1TI1XXvL3yNaGhRApbmc0yyCS9ikMJEvme_Ti3L94Q",
      "scope": "GOOGLE",
      "types": [
        "gym",
        "health",
        "point_of_interest",
        "establishment"
      ],
      "vicinity": "Tulegatan 13, Sundbyberg"
    },
    {
      "geometry": {
        "location": {
          "lat": 59.3458858,
          "lng": 17.9595898
        },
        "viewport": {
          "northeast": {
            "lat": 59.34716393029151,
            "lng": 17.9610108802915
          },
          "southwest": {
            "lat": 59.34446596970849,
            "lng": 17.9583129197085
          }
        }
      },
      "icon": "https://maps.gstatic.com/mapfiles/place_api/icons/generic_business-71.png",
      "id": "20a8840db2a40894cc689bbe8528419f9e297f9e",
      "name": "Stockholm Top Gymnastics",
      "place_id": "ChIJJ9GAO_mdX0YRRW-4FYSk6Gw",
      "rating": 5,
      "reference": "CmRRAAAA5OEQA7owxkgWfmpMklXMB-rdUpCyvcx_RLV4j_ZdEd3bcxYUpAk00zWtov9u3L55iN7n3W0wbb7thsAjc70_SVxc_NvJFPy5C9LX-jod9A0LDpR3DLDAYZGzFYYBwayaEhB-W--NADm-L6AWFrzOFb-FGhQYuqu0Qo2hAz25FkdEyYom4tJIZA",
      "scope": "GOOGLE",
      "types": [
        "gym",
        "health",
        "point_of_interest",
        "establishment"
      ],
      "vicinity": "Ulvsundavägen 106A, Bromma"
    },
    {
      "geometry": {
        "location": {
          "lat": 59.35103100000001,
          "lng": 18.004549
        },
        "viewport": {
          "northeast": {
            "lat": 59.3523791802915,
            "lng": 18.00591908029151
          },
          "southwest": {
            "lat": 59.34968121970849,
            "lng": 18.0032211197085
          }
        }
      },
      "icon": "https://maps.gstatic.com/mapfiles/place_api/icons/generic_business-71.png",
      "id": "5a85e19e8e8610777b9a786d1abf2f9d0882eeee",
      "name": "Puls & Träning",
      "place_id": "ChIJZ82FcZGdX0YR_kHOacsobnk",
      "reference": "CmRRAAAAKqd2CM_9uv-ubgYGZocwCrNXcEfV-hKSHRM0rFnD2x0e8IUujXWMfiVh-vx-YHvdMJybyfupUt-BaDYcfKtoS7YWn45iRTnkawH2e_LCuSElph1nxbjMEN2kcGW09fAEEhAjdZByQHxZIoigB7PqG78VGhTNlnnuwnNSX-lNPwtS9Qk78i8hIA",
      "scope": "GOOGLE",
      "types": [
        "gym",
        "health",
        "point_of_interest",
        "establishment"
      ],
      "vicinity": "Armégatan 9, Solna"
    },
    {
      "geometry": {
        "location": {
          "lat": 59.36053,
          "lng": 18.000085
        },
        "viewport": {
          "northeast": {
            "lat": 59.3618789802915,
            "lng": 18.0014339802915
          },
          "southwest": {
            "lat": 59.35918101970849,
            "lng": 17.9987360197085
          }
        }
      },
      "icon": "https://maps.gstatic.com/mapfiles/place_api/icons/generic_business-71.png",
      "id": "fff91658e4b78933b4d6b51a524f606bbd28546b",
      "name": "Member 24 Solna",
      "opening_hours": {
        "open_now": true,
        "weekday_text": []
      },
      "photos": [
        {
          "height": 628,
          "html_attributions": [
            "<a href=\"https://maps.google.com/maps/contrib/113500094880562321360/photos\">Member 24 Solna</a>"
          ],
          "photo_reference": "CmRYAAAAEumT_FOWifG3tUWKs5fxJwUvfSC777C2D3K9yd_93hzIfW7tCUDiSYkR8CnSh8hXajXZvcr1XSysZsFuRSQWafP00kZ_5bHfPsY1B-5hZtU4cSU09w_VVd522qId299AEhAoEfbO4zYg-7W-mGCjsT0OGhQCiSEVQ08ZL5tggOqdKCRu8cGfCw",
          "width": 1200
        }
      ],
      "place_id": "ChIJYcvW-7-dX0YRy6h6daFlnV4",
      "rating": 5,
      "reference": "CmRRAAAAHCpY7GunjLfblvDMee-KsT_TpdSQaS0hre9MfsFn2Om34cxL6bpAIGkyLN0PpT7r13q6z7aMfKtBymLd-Hcu3Juy6TuEHDTs5qLktvctKcJYqxs9Gs6fv1caaPXb500TEhCeDTb5eM_gLMwaIygU7q3WGhQzJIvt0GBaPBcTdRM4kM7APnxYpg",
      "scope": "GOOGLE",
      "types": [
        "gym",
        "health",
        "point_of_interest",
        "establishment"
      ],
      "vicinity": "Postgången 42, Solna"
    },
    {
      "geometry": {
        "location": {
          "lat": 59.3645708,
          "lng": 17.9657611
        },
        "viewport": {
          "northeast": {
            "lat": 59.3659557302915,
            "lng": 17.9671553302915
          },
          "southwest": {
            "lat": 59.3632577697085,
            "lng": 17.96445736970849
          }
        }
      },
      "icon": "https://maps.gstatic.com/mapfiles/place_api/icons/generic_business-71.png",
      "id": "b4592ded38c346082ce8b126137cdf0c37e51883",
      "name": "Fitness24Seven",
      "opening_hours": {
        "open_now": true,
        "weekday_text": []
      },
      "photos": [
        {
          "height": 2322,
          "html_attributions": [
            "<a href=\"https://maps.google.com/maps/contrib/115074036856688127206/photos\">Harri Korhonen</a>"
          ],
          "photo_reference": "CmRYAAAAqRd50-VWhE5cAXbZs9yKOeGQ_o3-FCpJWTvQx-shAGLfnAKGBXcIPj8rGd-JoHRq166PURiJpGBpGj9ndp5ewSTaiLNdzoLOwqSec7A6wodqJ3nAVQ5X5a8wMcMa9B3-EhA9UavtTaaNSoJSgbLDQZZNGhQc9OtGBZG6PE2fKM7pAuuAFwKYXQ",
          "width": 4128
        }
      ],
      "place_id": "ChIJm1KwfuCdX0YRAEY0fo7hNoc",
      "rating": 4,
      "reference": "CmRSAAAAq-qWIwCg7fKgsbIzptC5KuZb4bQGOwAXWbDMAC61mqESd5P5XyPBj6J6QAiezB-uOPHaSUqhWPNY-fo0gRMNOb2eGOXCcmc1U8NJ2vM7dSkgRcTApFJTWfIt5YsvMDDzEhA_0dncpj0ZV7YyaH4epD8DGhRXg7r0gRvmgd3biJ4-g8BcTVul4g",
      "scope": "GOOGLE",
      "types": [
        "gym",
        "health",
        "point_of_interest",
        "establishment"
      ],
      "vicinity": "Vegagatan 5, Sundbyberg"
    },
    {
      "geometry": {
        "location": {
          "lat": 59.3658312,
          "lng": 17.9895715
        },
        "viewport": {
          "northeast": {
            "lat": 59.3671632302915,
            "lng": 17.9909978802915
          },
          "southwest": {
            "lat": 59.36446526970849,
            "lng": 17.9882999197085
          }
        }
      },
      "icon": "https://maps.gstatic.com/mapfiles/place_api/icons/school-71.png",
      "id": "a1351960d51fd396b7a6939e9c155d872550e913",
      "name": "Little Peace Yoga",
      "opening_hours": {
        "open_now": true,
        "weekday_text": []
      },
      "place_id": "ChIJIxPHvcOdX0YR9eqglUPJnVU",
      "reference": "CmRRAAAA6SaIY_UTtusLvLVoWKij6Z-rjM375yh0hQDIiQSgimgK4fb18NGJ4Eccl4qFI4TsgF45YEYmsCXXe51Qoo2emZeddRFTFgnCr7JSyyWA_3Z-HJD9V6AJtpDQaGL0rzF9EhB9X94gtVCnmqfjXkBIOUViGhRU7uQducBKtWXQ3z6PK-uVn_wXQQ",
      "scope": "GOOGLE",
      "types": [
        "gym",
        "health",
        "point_of_interest",
        "establishment"
      ],
      "vicinity": "Förrådsgatan 3, Solna"
    },
    {
      "geometry": {
        "location": {
          "lat": 59.367636,
          "lng": 17.980809
        },
        "viewport": {
          "northeast": {
            "lat": 59.36898498029151,
            "lng": 17.9821579802915
          },
          "southwest": {
            "lat": 59.36628701970849,
            "lng": 17.9794600197085
          }
        }
      },
      "icon": "https://maps.gstatic.com/mapfiles/place_api/icons/generic_business-71.png",
      "id": "1d57081e87726b4583cc1601b28b27bfcb58b139",
      "name": "Puls & Träning",
      "opening_hours": {
        "open_now": true,
        "weekday_text": []
      },
      "photos": [
        {
          "height": 2988,
          "html_attributions": [
            "<a href=\"https://maps.google.com/maps/contrib/104184930983136729362/photos\">Pavel Maira</a>"
          ],
          "photo_reference": "CmRYAAAAjVWTB-d7H5GfVC_IiKDXW3QcbmYbgL_lGI9zgl5yXD5U_Ue5R5souwvMbVkbGWH3WAk6gWgFZ0aXGTGO_P3zZTXgn7YrQZFrUFWTkYFa0ARgFdDz0lDtzliGxtqLTsuPEhA1h9U0PB2SiMk9NsgdXCi3GhSqcnLhntR462ewbqh6bsV62-BbXQ",
          "width": 5312
        }
      ],
      "place_id": "ChIJfRsglNydX0YRXmgvQWzbfjg",
      "rating": 5,
      "reference": "CmRRAAAA5UAJkbxInGAa419HHZRxhZ7PKHIaw57JiMcs1qrlKHWBjPbsajxqFWhAEZQ2O5rUyGWbSz3otYpG9o5VGe785G5eLhhsyNUD1B0UXQDptI0wvjlNyPlURreFhYp6OeiUEhCLKiYDHvEab9J0BA_S4YPjGhQbHIfSng_mbtDww_8T3Z6ACS0JIg",
      "scope": "GOOGLE",
      "types": [
        "gym",
        "health",
        "point_of_interest",
        "establishment"
      ],
      "vicinity": "Thor modéns plats 2, Solna"
    },
    {
      "geometry": {
        "location": {
          "lat": 59.3685061,
          "lng": 17.979573
        },
        "viewport": {
          "northeast": {
            "lat": 59.36990708029151,
            "lng": 17.9806018302915
          },
          "southwest": {
            "lat": 59.3672091197085,
            "lng": 17.9779038697085
          }
        }
      },
      "icon": "https://maps.gstatic.com/mapfiles/place_api/icons/school-71.png",
      "id": "37450eedb5be3a6f182ed6d5021d590e957aecb1",
      "name": "Ronin Do If",
      "place_id": "ChIJXdeqgNydX0YRb9GdfKAKlOw",
      "rating": 5,
      "reference": "CmRSAAAAJaBIaqBNbS6BJvl4FNwYtLwQGtW5-LM4_dRxDyBJJWW9rMAoP4FNIOrpDMtr9URUg53rkg-iHA0Ee9m416Hpdr2WVPbEM-wkqEQeAHCHsaXr6-E3imEfo3YmpSAGvvxVEhCCdlKmQ2ugsBE8Cih7dB5JGhTOSjRmtKH-Si_1747KvmGcuRA4kg",
      "scope": "GOOGLE",
      "types": [
        "gym",
        "health",
        "point_of_interest",
        "establishment"
      ],
      "vicinity": "Skogsbacken 26, Sundbyberg"
    },
    {
      "geometry": {
        "location": {
          "lat": 59.36244399999999,
          "lng": 18.0047924
        },
        "viewport": {
          "northeast": {
            "lat": 59.3638323302915,
            "lng": 18.0060913802915
          },
          "southwest": {
            "lat": 59.36113436970849,
            "lng": 18.00339341970849
          }
        }
      },
      "icon": "https://maps.gstatic.com/mapfiles/place_api/icons/generic_business-71.png",
      "id": "845c97d20406e8206d8184fee4ec3c7c8be9aa1e",
      "name": "Fitness24Seven",
      "opening_hours": {
        "open_now": true,
        "weekday_text": []
      },
      "photos": [
        {
          "height": 1192,
          "html_attributions": [
            "<a href=\"https://maps.google.com/maps/contrib/107249948035787097365/photos\">Fitness24Seven</a>"
          ],
          "photo_reference": "CmRYAAAAKy3LMaYZk9kr1P44sE9Pe2PWII_DHPcplR0Q5eI7TuiAO-oK0mkhl2lMj2yvIs5Qa1Ou4rx1GTftQPKVqhvTUHoX4nsrTo5EsBS4ehDRZxX2uF5RN7jvdljwwh1M0KOAEhAw1AXSZgLqgWYZcYTMa0Q0GhQfR2sBBVjCnz_FLFJPQmA3UyoKXw",
          "width": 2120
        }
      ],
      "place_id": "ChIJ29zFB7-dX0YR6pwIkJY3ioo",
      "rating": 3,
      "reference": "CmRSAAAAmBR7VC3rt5VB1ReheZGrGu6ErO2veOJ5bEjVvnNk2wKFGIDRaxZtN-nNuosEKPuZhG5K8CIWlNbus1Pen2hubxbfxb9QRcuJQmTrsiBLf-obnHzwvCbx-xZ_PY-VovVVEhDBByL0pvVwsFZYl34Uwxf4GhQtgQGRZW8DfL1NIhmZl1XrVKk7sQ",
      "scope": "GOOGLE",
      "types": [
        "gym",
        "health",
        "point_of_interest",
        "establishment"
      ],
      "vicinity": "Kruthusbacken 70, Solna"
    },
    {
      "geometry": {
        "location": {
          "lat": 59.3678147,
          "lng": 17.9675762
        },
        "viewport": {
          "northeast": {
            "lat": 59.36916368029151,
            "lng": 17.9689251802915
          },
          "southwest": {
            "lat": 59.36646571970849,
            "lng": 17.9662272197085
          }
        }
      },
      "icon": "https://maps.gstatic.com/mapfiles/place_api/icons/school-71.png",
      "id": "01bf1c4ea4eba124d5213000a11053f6bdea5c45",
      "name": "Henlin Consulting",
      "place_id": "ChIJx3hll9-dX0YRvdripDhOiI8",
      "reference": "CmRSAAAAruthncde3Yq0_7Jb89AueBfAgNtvbnIa0bzEHlYuFExtQIWrG4U9m4XYMbr08vVHhV9cHLB96HNsDKzEwV7hbsnyAbqgAgKMSsStZ2e3brxZcWkapBm2EW-QC5d9RObMEhCTfZvJjwtuGWir93GgZrBkGhR083YAHozmY13IX5CX3jL4FFq8Ww",
      "scope": "GOOGLE",
      "types": [
        "gym",
        "health",
        "point_of_interest",
        "establishment"
      ],
      "vicinity": "Kyrkogatan 5, Sundbyberg"
    },
    {
      "geometry": {
        "location": {
          "lat": 59.35745350000001,
          "lng": 17.9925063
        },
        "viewport": {
          "northeast": {
            "lat": 59.3588147302915,
            "lng": 17.9936601302915
          },
          "southwest": {
            "lat": 59.35611676970849,
            "lng": 17.9909621697085
          }
        }
      },
      "icon": "https://maps.gstatic.com/mapfiles/place_api/icons/generic_business-71.png",
      "id": "02c08a7f2382e0d203935eb3fb67e3b2c1fd7799",
      "name": "Inclined Labs AB",
      "place_id": "ChIJzzUTBuudX0YRqyS7XyQfZtU",
      "reference": "CmRSAAAAna2jU-8ptMiDwuBol0hyyp8Jx3XjGLn5vR9vevqT4qkSXkpV6oGNMfqVQnIkW33RwcqY3dehin2F4W5-szuuYR3NPVd4WQrTlRzwii5Ta7E0BWAL646vJzobn4ymJlMoEhCm6Nbr4qrgU57inM8LmZl2GhRaZyFP0_2uBdevfFac3nwNgl7C_A",
      "scope": "GOOGLE",
      "types": [
        "gym",
        "health",
        "point_of_interest",
        "establishment"
      ],
      "vicinity": "Nybodagatan 16, Solna"
    },
    {
      "geometry": {
        "location": {
          "lat": 59.36015699999999,
          "lng": 17.972423
        },
        "viewport": {
          "northeast": {
            "lat": 59.36144048029151,
            "lng": 17.9736586302915
          },
          "southwest": {
            "lat": 59.3587425197085,
            "lng": 17.9709606697085
          }
        }
      },
      "icon": "https://maps.gstatic.com/mapfiles/place_api/icons/generic_business-71.png",
      "id": "8283672df21e7dbb107368106ead2a3aeb98ed72",
      "name": "Puls & Träning",
      "opening_hours": {
        "open_now": true,
        "weekday_text": []
      },
      "place_id": "ChIJi76J8OadX0YRFD1zbbJmBOY",
      "reference": "CmRSAAAAbq3rSRMcNmAVGSXL0NmopiJtg1je177iThowvGkrKrMUmnxO8yhsC4b0F9RiT_GiDoQY1wt4t9LOYlYs24Czc0hCsurlpen6D3WkfgpqAROw0qwBQYUhm7tBK2jRAPs8EhBXOxpRJUlK1dZBbBeRJ5JNGhQ3hehd4qvFPkwYwzawLBzQAIJkuQ",
      "scope": "GOOGLE",
      "types": [
        "gym",
        "health",
        "point_of_interest",
        "establishment"
      ],
      "vicinity": "Landsvägen 50, Sundbyberg"
    },
    {
      "geometry": {
        "location": {
          "lat": 59.3609986,
          "lng": 17.9731607
        },
        "viewport": {
          "northeast": {
            "lat": 59.3625526302915,
            "lng": 17.9747609302915
          },
          "southwest": {
            "lat": 59.35985466970849,
            "lng": 17.9720629697085
          }
        }
      },
      "icon": "https://maps.gstatic.com/mapfiles/place_api/icons/generic_business-71.png",
      "id": "d54c22da95c83830f34a4ad6cbe048be4158b867",
      "name": "Nordic Wellness Sundbyberg",
      "opening_hours": {
        "open_now": true,
        "weekday_text": []
      },
      "photos": [
        {
          "height": 550,
          "html_attributions": [
            "<a href=\"https://maps.google.com/maps/contrib/118021053224516658558/photos\">Markus Hellke</a>"
          ],
          "photo_reference": "CmRYAAAAW1sp264SVAc8Vdrix_R2SxHT2w84U2fj9j9PP2KmECHBqrXUcyNj6x7sRYZmVnkaQR2e3II2my-UnFOo9g-U1C4Ov3synU2-1aWrtfV84e4OCH5EGKY2mkhM-KRWxTiqEhDWQC8wn-x6TXLtmJjPv6FAGhS0jo_Ab3MmdKeK4M-cKM-VX7xOkg",
          "width": 1920
        }
      ],
      "place_id": "ChIJhR1GAuedX0YRkaBTqoQ6Wm0",
      "rating": 3.8,
      "reference": "CmRRAAAAN8jZFpcuv1vMCuC2oJHdSIGt53lsyTvGmsHshh4CSWFrqZ1CjyuHET1-sPtFYsfkfZeW-TwSKVbpv06JqhzOAxX1WPdxfu0fFRi_avyLUjujyB6ZiP19KMeXpJdFuJ0rEhC08SpDml1OK7CUqwQAQPV7GhRfy2Cr355Fs6C2yYFP5BzklHZtSA",
      "scope": "GOOGLE",
      "types": [
        "gym",
        "health",
        "point_of_interest",
        "establishment"
      ],
      "vicinity": "Sturegatan 9, Sundbyberg"
    },
    {
      "geometry": {
        "location": {
          "lat": 59.3457543,
          "lng": 17.9592679
        },
        "viewport": {
          "northeast": {
            "lat": 59.3470511802915,
            "lng": 17.9606484802915
          },
          "southwest": {
            "lat": 59.34435321970849,
            "lng": 17.9579505197085
          }
        }
      },
      "icon": "https://maps.gstatic.com/mapfiles/place_api/icons/school-71.png",
      "id": "0a2f47024b2b4829b601fc0f413e2bc0ee2a0eb6",
      "name": "Kindahls Dansakademi",
      "photos": [
        {
          "height": 2988,
          "html_attributions": [
            "<a href=\"https://maps.google.com/maps/contrib/114755096853141143585/photos\">Bror Jonsson</a>"
          ],
          "photo_reference": "CmRYAAAAvQSKnCZJR34KWFbQhrZo8GUBtan-9l9dkP3uTV_qwp5z0vogj5SlJV7U0iZA0tIs7mYxo2ucbRClzqEDmqALD1RQPMxagkiKw_w2YnKSeKE9M_1XDdF_NJ8Pf_AA_B_9EhCYWCLc22fbphGxTobZSGmpGhTT63-oboYO5lVlNTuLGKLTev2faw",
          "width": 5312
        }
      ],
      "place_id": "ChIJ9SAuO_mdX0YRuuXxeDiSeps",
      "reference": "CmRSAAAALjGgzTY3wrP053mTnCYYyCEiMLMIDedRdAcIj8Di0MYk5tmmTrDhaln4Hw2Z6H5hNB74kYNbFU5z4qhVBXjn6jKzwvG8sViSLesRjI92GvaOAmdFCqvwQQ2fF_D-leN-EhAIiBcgmnor9dtmwsDYQ-XuGhT9XAJVkZC9T0BxsWwEuqgM4bbX6Q",
      "scope": "GOOGLE",
      "types": [
        "gym",
        "health",
        "point_of_interest",
        "establishment"
      ],
      "vicinity": "Ulvsundavägen 106A, Bromma"
    },
    {
      "geometry": {
        "location": {
          "lat": 59.360291,
          "lng": 17.9601388
        },
        "viewport": {
          "northeast": {
            "lat": 59.36157438029151,
            "lng": 17.9614402302915
          },
          "southwest": {
            "lat": 59.35887641970849,
            "lng": 17.9587422697085
          }
        }
      },
      "icon": "https://maps.gstatic.com/mapfiles/place_api/icons/generic_business-71.png",
      "id": "68d24bd507ed3100244f763dfdae69aba25b7e40",
      "name": "Puls & Träning",
      "opening_hours": {
        "open_now": true,
        "weekday_text": []
      },
      "place_id": "ChIJbXNH-uGdX0YRPspolkVQzv4",
      "reference": "CmRSAAAAbMcWa8Ql6ZWY9xBgaQuf-hjiEIddf1aPgy4WyKjyPLl8a2QRZ2jQ4NrFoaX13gW3GIRmSGcITRvecOh0tgW0y9IOlCmnPCfTa9zb82572jeY3xArQ1CZPza-OiuP5UkdEhCNp2JIFgjQrKgdCR0v9VXzGhTRMOP5VMIuRZiQ9DLzded4ls6ZwQ",
      "scope": "GOOGLE",
      "types": [
        "gym",
        "health",
        "point_of_interest",
        "establishment"
      ],
      "vicinity": "Bällstavägen 8, Bromma"
    },
    {
      "geometry": {
        "location": {
          "lat": 59.36439099999999,
          "lng": 17.9706717
        },
        "viewport": {
          "northeast": {
            "lat": 59.3656972802915,
            "lng": 17.9721602302915
          },
          "southwest": {
            "lat": 59.36299931970849,
            "lng": 17.9694622697085
          }
        }
      },
      "icon": "https://maps.gstatic.com/mapfiles/place_api/icons/school-71.png",
      "id": "04f2422c6b4849a962ae195bdab5c2cfc4269dad",
      "name": "Mias Yogastudio",
      "photos": [
        {
          "height": 4912,
          "html_attributions": [
            "<a href=\"https://maps.google.com/maps/contrib/116313494239785584915/photos\">Henrik Lindén</a>"
          ],
          "photo_reference": "CmRYAAAAQXXEAHhhM-h_I6hWlXs1VIJUiNfW3x9tLK_UExATUKNQE269orOAwgJVpKvHSSNi7-NKAvcU86xCo5RwLTlPNPUkpbpgwPu-dyRWJdZsFguy29wUwt_Lp7tSe09y5zlWEhB7RzO2Uc8s3rT-8NQvOCcgGhRiRsfkZkA_ByEPpk0MGl_4hy0Dog",
          "width": 7360
        }
      ],
      "place_id": "ChIJ4xZ2quCdX0YRf-2pzQJykqM",
      "rating": 5,
      "reference": "CmRSAAAAm0oXlx4hmuSEHbM49UcWlRTT_wDn_I8gxE-7KHzysLBsucJhFRyxEc-d_FRgfFhKCcpoP1R4_p3I3f8BQfDdinqRmH-StYnSymCDaUYBJSvBtQinj5NWA7aGZgwgOI39EhA4JQvUdJZjw4llzkfx_1k0GhRWRgXZnj7k1BsqPwPbilUhATTeig",
      "scope": "GOOGLE",
      "types": [
        "gym",
        "health",
        "point_of_interest",
        "establishment"
      ],
      "vicinity": "Kyrkogatan 5, Sundbyberg"
    },
    {
      "geometry": {
        "location": {
          "lat": 59.35522869999999,
          "lng": 18.0043206
        },
        "viewport": {
          "northeast": {
            "lat": 59.3565776802915,
            "lng": 18.0056695802915
          },
          "southwest": {
            "lat": 59.35387971970849,
            "lng": 18.0029716197085
          }
        }
      },
      "icon": "https://maps.gstatic.com/mapfiles/place_api/icons/generic_business-71.png",
      "id": "d52d75475ef5e27f5fc024a8e63b14a390a3570f",
      "name": "SIBF",
      "place_id": "ChIJK5CVPJSdX0YRItlooJWf1F0",
      "reference": "CmRRAAAAp_MtRxTHkP1_-Z9sMPG7wIAuu4NGItTs-MFb5cqIB92-vNEDij0Pf0Q6SudAyRONOF1f9xMZ5AhbAxC6-CE6FI7WU1PZ9Tji77sagk33Dijiruupua7vrZsjS9OIIIHWEhAMqpwzJeJH0AOIbkkz02HOGhRj0zv46zKPR1FRcDubHpEe8gOwdA",
      "scope": "GOOGLE",
      "types": [
        "gym",
        "health",
        "point_of_interest",
        "establishment"
      ],
      "vicinity": "Sundbybergsvägen 9, Solna"
    },
    {
      "geometry": {
        "location": {
          "lat": 59.3588643,
          "lng": 18.0018577
        },
        "viewport": {
          "northeast": {
            "lat": 59.36013058029152,
            "lng": 18.0032167302915
          },
          "southwest": {
            "lat": 59.3574326197085,
            "lng": 18.0005187697085
          }
        }
      },
      "icon": "https://maps.gstatic.com/mapfiles/place_api/icons/generic_business-71.png",
      "id": "9b8c5619ce7f411ffadf40f2746bc1bec59a7249",
      "name": "CrossFit Tegen",
      "place_id": "ChIJoyPrPJSdX0YRMpmzRzakCSI",
      "reference": "CmRRAAAApUXSKgVzbHTbctMCWpFvaNZqTaZe8X3f4g35q-BJ7dMnQ8vE0Fbn2vUfi2wqkmK0uOtlzUSuhCl5M8VK9hB5ByY5L5TDYacva4z_8judP_GT5RCC7SW1OsdwnKgNdmJQEhCwTjdvuhoocD8KoHzme5QcGhT-mdW2Y3zAmRpOF_8qwAOQPpvkjQ",
      "scope": "GOOGLE",
      "types": [
        "gym",
        "health",
        "point_of_interest",
        "establishment"
      ],
      "vicinity": "Centralvägen 6, Solna"
    },
    {
      "geometry": {
        "location": {
          "lat": 59.3652912,
          "lng": 17.9743395
        },
        "viewport": {
          "northeast": {
            "lat": 59.36653603029151,
            "lng": 17.9755571802915
          },
          "southwest": {
            "lat": 59.36383806970849,
            "lng": 17.9728592197085
          }
        }
      },
      "icon": "https://maps.gstatic.com/mapfiles/place_api/icons/generic_business-71.png",
      "id": "a7e70b3b0b2d0e5c0c9d66bc0045e4b1b9a0bf0e",
      "name": "Balance Sundbyberg",
      "opening_hours": {
        "open_now": true,
        "weekday_text": []
      },
      "photos": [
        {
          "height": 3263,
          "html_attributions": [
            "<a href=\"https://maps.google.com/maps/contrib/104184930983136729362/photos\">Pavel Maira</a>"
          ],
          "photo_reference": "CmRYAAAAVhDeZjFFYkBBR8KKFIARZMNRsHu-9BXQ7CB2Pvf-IHAsYClanpKoHygh67a3u1hzyhM0BRRmzsujT5-cs94a2O7OQumGaBa4a4UDSWQPbvgxXy1ijOIr5MYU94B8pTmEEhA6UNonD_23JUSbKugD6IjCGhRKx_ht61n_5VSaDfCL45OglQiWOw",
          "width": 4351
        }
      ],
      "place_id": "ChIJ0Vhw6t2dX0YR0pCjWv1gZew",
      "rating": 5,
      "reference": "CmRSAAAAgIlBZCsAlqatSl3pFyMP4T1M0HULBLEL78MXjCJbxftwVEMCP7E_mM3YF0N1uYS49xV2XWXkP_Ee2eq1aqo-GPYjGFut7RpafQZ1_MRLDGBU4QNSsR0wQsgi1Qjn_0dbEhCyoO_ZZTmGfbsCDUraCxUoGhTnVYXEBbjwOJ6H_qWxRDDr7n4OFw",
      "scope": "GOOGLE",
      "types": [
        "gym",
        "health",
        "point_of_interest",
        "establishment"
      ],
      "vicinity": "Tulegatan 16, Sundbyberg"
    },
    {
      "geometry": {
        "location": {
          "lat": 59.35960599999999,
          "lng": 17.9561
        },
        "viewport": {
          "northeast": {
            "lat": 59.36083573029151,
            "lng": 17.9575211302915
          },
          "southwest": {
            "lat": 59.35813776970849,
            "lng": 17.9548231697085
          }
        }
      },
      "icon": "https://maps.gstatic.com/mapfiles/place_api/icons/generic_business-71.png",
      "id": "aa0f7a800979908faecdc73869ab7d102a9bdd8a",
      "name": "Puls & Träning",
      "opening_hours": {
        "open_now": true,
        "weekday_text": []
      },
      "place_id": "ChIJ68kZ8AmeX0YRtpFvjDGg-kM",
      "reference": "CmRRAAAA1hIS5wucex6tV-9GePaewiP3diguGzo29wytfmtywoXOakLDLxmFIyNtMuMFZxnLIK0A8Jqn-6-iK4PvWXnyVt1ZTZUCHFe1Hng01eQMjzDjJLkXZM4HyzjVcHPR3URIEhBfIzTe8ZTYk8JLT-PH4eNTGhS6lkFkSMB7G2AKmp-XWZkRcfBrkA",
      "scope": "GOOGLE",
      "types": [
        "gym",
        "health",
        "point_of_interest",
        "establishment"
      ],
      "vicinity": "Mariehällsvägen 3, Bromma"
    },
    {
      "geometry": {
        "location": {
          "lat": 59.362866,
          "lng": 17.9596221
        },
        "viewport": {
          "northeast": {
            "lat": 59.3640196802915,
            "lng": 17.96190149999999
          },
          "southwest": {
            "lat": 59.36132171970849,
            "lng": 17.9588623
          }
        }
      },
      "icon": "https://maps.gstatic.com/mapfiles/place_api/icons/generic_business-71.png",
      "id": "4e74e169fa07a6c4b6923d411123cd47b2945a65",
      "name": "Friskis&Svettis Sundbyberg",
      "opening_hours": {
        "open_now": true,
        "weekday_text": []
      },
      "photos": [
        {
          "height": 5312,
          "html_attributions": [
            "<a href=\"https://maps.google.com/maps/contrib/114755096853141143585/photos\">Bror Jonsson</a>"
          ],
          "photo_reference": "CmRYAAAA39tUqBaZZOu6HSw2_fsYiwYlUy9yYG9Uwln2eDG--wjYeZwhhuwf-T1Dfp1Tp9P5f7PIX_ptN8K8O5tf4eTibG8TUA7Klifd_5xtRU6MIB3dhXzQW5lvK6nipvOa-0ciEhAa2bqUXtM0FrE6_Mdy-WXRGhTbZqUzoX3b6mzWyehD31GbKoRD7Q",
          "width": 2988
        }
      ],
      "place_id": "ChIJazVggAqeX0YRZ5tNB-O-xjo",
      "rating": 4.7,
      "reference": "CmRRAAAA_RyCRDKqsCkL-wRPMjI0wJfQx0x7kyYtnsVTqMhIbwO9TnORapw6KVJAfhejVBvDjltl363Qec5ny0m9gr6GLgt-kNjUW1qw-Wl-e-Ybppo21RmfuFD41NwPlGb07mS7EhCroPC6K-N3CobLnrHXLC0BGhS0rGMB-qNSRUYSydIB0dZtiu-28g",
      "scope": "GOOGLE",
      "types": [
        "gym",
        "health",
        "point_of_interest",
        "establishment"
      ],
      "vicinity": "Allén 5, Sundbyberg"
    },
    {
      "geometry": {
        "location": {
          "lat": 59.3632034,
          "lng": 17.9588297
        },
        "viewport": {
          "northeast": {
            "lat": 59.3646863302915,
            "lng": 17.9604929302915
          },
          "southwest": {
            "lat": 59.36198836970848,
            "lng": 17.9577949697085
          }
        }
      },
      "icon": "https://maps.gstatic.com/mapfiles/place_api/icons/generic_business-71.png",
      "id": "637e88ef972116847162e7c980105780bf2dc95e",
      "name": "Friskis & Svettis Sundbyberg",
      "opening_hours": {
        "open_now": true,
        "weekday_text": []
      },
      "photos": [
        {
          "height": 1255,
          "html_attributions": [
            "<a href=\"https://maps.google.com/maps/contrib/114755096853141143585/photos\">Bror Jonsson</a>"
          ],
          "photo_reference": "CmRYAAAAneVGwfwzTDDmd51au7LT0GxY5hP23SaIBm85ZexMh_XIPkYDhOOM9It96xWx0gFEzf0jsdZ7di0FXgt-V5VnZtzKEroCQGM3A0FoEQOtG91b3Pmczb1S3nnKf8fB3KAOEhDBylDcqmAKAYb1RdEY_vt3GhSM53evWTJc1_0ipwyOPYWgwFcpwQ",
          "width": 2509
        }
      ],
      "place_id": "ChIJY5GkiAqeX0YRGsP1UpRsfuo",
      "rating": 4.2,
      "reference": "CmRSAAAAyZ7yV6OWG1cOh0EL9NNT2KYDSt79UVEAMoEf1FOsJaNtkZonY1fet7GLVqESKF70Z2Uw6tVi7oktS0t3EF5IlAcmQrXuLzbdmmMWh8x3jT5l28uq6ZjCIUgo-N-uHxAdEhBykJ-kHuXibFaha2JYQxsWGhRNOn5IW-ewGmvj7dPqA2l3qAvAjQ",
      "scope": "GOOGLE",
      "types": [
        "gym",
        "health",
        "point_of_interest",
        "establishment"
      ],
      "vicinity": "Löfströms allé 5, Sundbyberg"
    },
    {
      "geometry": {
        "location": {
          "lat": 59.3690821,
          "lng": 17.9830571
        },
        "viewport": {
          "northeast": {
            "lat": 59.37034493029152,
            "lng": 17.9842012302915
          },
          "southwest": {
            "lat": 59.3676469697085,
            "lng": 17.98150326970849
          }
        }
      },
      "icon": "https://maps.gstatic.com/mapfiles/place_api/icons/school-71.png",
      "id": "3dafceaa845897a207cab2778aa1b706c3d8c4df",
      "name": "Solna Yogaskola",
      "place_id": "ChIJLZm3XNudX0YR9KasiKCUtJs",
      "reference": "CmRSAAAA_jakiq-i0IpN3G2NsOFjCb4odx4OAPNkReD1KW01TjtzaIkUmRJb2FgsvOfnkfi7LFne7oJvnX28qSjP3HHy6ZEF8rDCNjyEHQ2Yu0aa9iItXUs6uNhXwhcLZAqDCWhQEhCIwUOzwvapNty5R119xf5WGhRZVPvu-lCugNoVxBRMp-tiLpNtqg",
      "scope": "GOOGLE",
      "types": [
        "gym",
        "health",
        "point_of_interest",
        "establishment"
      ],
      "vicinity": "Näckrosvägen 19, Solna"
    },
    {
      "geometry": {
        "location": {
          "lat": 59.3420718,
          "lng": 17.953362
        },
        "viewport": {
          "northeast": {
            "lat": 59.3437106302915,
            "lng": 17.9543560302915
          },
          "southwest": {
            "lat": 59.34101266970849,
            "lng": 17.9516580697085
          }
        }
      },
      "icon": "https://maps.gstatic.com/mapfiles/place_api/icons/generic_business-71.png",
      "id": "189f6f26b41e5fb17c8114fdc41567e8a5f9acd1",
      "name": "Ulvsunda Utomhusgym",
      "opening_hours": {
        "open_now": true,
        "weekday_text": []
      },
      "photos": [
        {
          "height": 2988,
          "html_attributions": [
            "<a href=\"https://maps.google.com/maps/contrib/102840955391439053219/photos\">Jon Borglund</a>"
          ],
          "photo_reference": "CmRYAAAAHozpk6TdPx1_6tQHUBPTJpHNLhzKWowzlkQZC9WCxLTvEtGaa_B4X02Qwz6N1Kiqgbt9dvomjUUkJgNGooLkdU5vecZ7LP5HGWgldAVOZ1RYqAdiMIrTTj_pqj1BzBmgEhB9mqSfHqDWKVtMndAD_tgsGhRqqZjAbDHH8FYYJ7cU8UmryeCi-g",
          "width": 5312
        }
      ],
      "place_id": "ChIJoeqO7wF2X0YRtCnSfAFp5ww",
      "rating": 4,
      "reference": "CmRRAAAAFQoEmbW5VYNvvcoyVsFQ2XOICFahS5uySnfRkU1jTIg_kO6Jt-fotnrXVaM0Hs-xPF0S5kX2yZdD9AYOHM7luB2v6IENaNyCyJLUsfqx6S_QCsg9OFjC1G660jdfdev_EhCd71m76_KH83Elo597UKEBGhQBPCA2tbc_pfvzQRKvM8y3OIvmWg",
      "scope": "GOOGLE",
      "types": [
        "gym",
        "health",
        "point_of_interest",
        "establishment"
      ],
      "vicinity": "Kvarnbacksvägen 55, Bromma"
    }
  ],
  "grocery_or_supermarket": [
    {
      "geometry": {
        "location": {
          "lat": 59.3511248,
          "lng": 17.9659577
        },
        "viewport": {
          "northeast": {
            "lat": 59.3524737802915,
            "lng": 17.9673066802915
          },
          "southwest": {
            "lat": 59.34977581970849,
            "lng": 17.9646087197085
          }
        }
      },
      "icon": "https://maps.gstatic.com/mapfiles/place_api/icons/post_office-71.png",
      "id": "01c7033404748234d809c7efd6aa4f6755fd92df",
      "name": "Postombud på City Gross Bromma",
      "opening_hours": {
        "open_now": true,
        "weekday_text": []
      },
      "photos": [
        {
          "height": 2003,
          "html_attributions": [
            "<a href=\"https://maps.google.com/maps/contrib/111910759606368254350/photos\">飯塚誠</a>"
          ],
          "photo_reference": "CmRYAAAAHnFYMUWhR8Y3TXcvYFaVES0omYvOsGgyo4byW4aO8CW3-GjioVawb2kJRi-JFgLgXwr5443GnofdfKwcmKjii22z3G9Aja1Lf11xhXYZ0uMFB1sa5RJ-gdHPARudhz0lEhA0lsVIMnyXtHdUwSvqlrTPGhRyhwGFbd_tkt4yJ9kmVZNYSbbw6A",
          "width": 2785
        }
      ],
      "place_id": "ChIJJZAS8_qdX0YRNW7Vf0YDG34",
      "rating": 3.9,
      "reference": "CmRRAAAATYT3hcsINdxlgIZ_3bPQxyRZh_18sbgc7VrvHbrj9I9Cf16gAJTXV5A5ISythNG9wxb9E6dFhYNVfgWpEfoeVuoBq4B2L9sMELcgvw_zCaOL_02ABaCDkueixRBqX72XEhBJOwMnuHqCDwN-VtrCZ55dGhTooCkOZGfkxDFhmlZTJbQUoha-qw",
      "scope": "GOOGLE",
      "types": [
        "post_office",
        "shopping_mall",
        "grocery_or_supermarket",
        "food",
        "finance",
        "store",
        "point_of_interest",
        "establishment"
      ],
      "vicinity": "Bryggerivägen 10, Bromma"
    },
    {
      "geometry": {
        "location": {
          "lat": 59.3585295,
          "lng": 17.9806792
        },
        "viewport": {
          "northeast": {
            "lat": 59.35993433029151,
            "lng": 17.9821502302915
          },
          "southwest": {
            "lat": 59.3572363697085,
            "lng": 17.9794522697085
          }
        }
      },
      "icon": "https://maps.gstatic.com/mapfiles/place_api/icons/shopping-71.png",
      "id": "17e76c2270d109053ee7f44c16ad3ea211641d6e",
      "name": "ICA Maxi Stormarknad Solna",
      "opening_hours": {
        "open_now": true,
        "weekday_text": []
      },
      "photos": [
        {
          "height": 3024,
          "html_attributions": [
            "<a href=\"https://maps.google.com/maps/contrib/104511208322318880536/photos\">Claes Mogren</a>"
          ],
          "photo_reference": "CmRYAAAAomKLCf1eItcB2uhu3d8QVCj0OeNHp92NaNUR7eNjaGxg2joB_9fC4BU2P70H50u5yqSxzQfbiILT6DURgtc7F9U8QK_xu-h10mOH-wHywlW4g6D3gzGLv3J_-MGx8JloEhCjA18yK0KBbcI60dQpuP90GhSBV6GfYx-PuT4k6akHCPSw_38nPw",
          "width": 4032
        }
      ],
      "place_id": "ChIJj2UVkuidX0YRTYMsbQEsCPI",
      "rating": 4.1,
      "reference": "CmRSAAAA0HsHyzCq7OgvZLxP4GITlKI24cjgSBAjDEFq54ZSaXzlVc6rUkOl_b7M2tLm57n08aG6k8kPU2SXwLkpYwyI_j2y4a-WR-N80wezK-FtSJ5d_ViOOe-4_lHPuEQRz65dEhDz1Ix9oxUDjqK8y2Z2ZKhkGhRgCx8wBeMlC-k8gwi-16MncqmwzA",
      "scope": "GOOGLE",
      "types": [
        "grocery_or_supermarket",
        "food",
        "store",
        "point_of_interest",
        "establishment"
      ],
      "vicinity": "Svetsarvägen 18, Solna"
    },
    {
      "geometry": {
        "location": {
          "lat": 59.35657209999999,
          "lng": 17.9528349
        },
        "viewport": {
          "northeast": {
            "lat": 59.3579210802915,
            "lng": 17.9541838802915
          },
          "southwest": {
            "lat": 59.35522311970848,
            "lng": 17.9514859197085
          }
        }
      },
      "icon": "https://maps.gstatic.com/mapfiles/place_api/icons/shopping-71.png",
      "id": "3df561cccee1a477aac33ec6e7df409cfd0e341f",
      "name": "Coop Forum",
      "opening_hours": {
        "open_now": true,
        "weekday_text": []
      },
      "photos": [
        {
          "height": 3024,
          "html_attributions": [
            "<a href=\"https://maps.google.com/maps/contrib/110527937698843159794/photos\">Björn Stårner</a>"
          ],
          "photo_reference": "CmRYAAAAh6oQ6WlA_l032qfOybflCIGzuwGLSu76dpVPysBTCM7WandjWFdFDyl9p9WIPzdu-1E-Xe0tcpEhthzCqVOmpxf9uFjSe1za8bM9bUq5hiybBmmZzj2piUE1JnikaYncEhCPx7lpsplrz-0n4A-5KcCWGhQ_uJiKAsYQL_k3gU2QCcwXZy2YLg",
          "width": 4032
        }
      ],
      "place_id": "ChIJrU49XQieX0YRWtBoxAMcpU4",
      "rating": 4,
      "reference": "CmRRAAAArzoOyb7gevVbDeIez3onDVhK_wHTztyk_qikiPDwmr65twZtwaSCSWUrz7EnLkXAlNms7NlodfyohqbxyxktCmF5loTczTosSN4UQZFw4-mihgYTZPgSkVJeH5cxEoPLEhDTijHwor1CATQPRmm0oR4AGhQOT1gYWwgH4Mb6rMCxA6qx2CMxpg",
      "scope": "GOOGLE",
      "types": [
        "grocery_or_supermarket",
        "food",
        "store",
        "point_of_interest",
        "establishment"
      ],
      "vicinity": "Ulvsundavägen 189, Bromma"
    },
    {
      "geometry": {
        "location": {
          "lat": 59.3577732,
          "lng": 17.9864511
        },
        "viewport": {
          "northeast": {
            "lat": 59.35934833029151,
            "lng": 17.9881723302915
          },
          "southwest": {
            "lat": 59.3566503697085,
            "lng": 17.9854743697085
          }
        }
      },
      "icon": "https://maps.gstatic.com/mapfiles/place_api/icons/shopping-71.png",
      "id": "1f69af511cd2e77b8dcbc24343a76ed58a575e61",
      "name": "Lidl",
      "opening_hours": {
        "open_now": true,
        "weekday_text": []
      },
      "photos": [
        {
          "height": 2204,
          "html_attributions": [
            "<a href=\"https://maps.google.com/maps/contrib/106775251548621923887/photos\">Alex Arhipov</a>"
          ],
          "photo_reference": "CmRYAAAABhn2kQe23gTJ4URGPPcoLoA8ZqAQckcnVSgauH8r8RqLMBymKtgR1-Yn-aWtRU1dPl-PaTCdiUoGGKtHNEf31x53FII70siLbdLgj3XyKHChmUlfWUbyEtFcwKVcUhZBEhBCVw8FBhQo3Tq4G3dUxIzgGhTQtk5G-xrSs-fBKjSyppIqpelBcw",
          "width": 3920
        }
      ],
      "place_id": "ChIJB5pFYemdX0YRJZpFE1Hm1f0",
      "rating": 3.8,
      "reference": "CmRSAAAAKEIwtORCS4a813YSNQO6hoB61dYNJ18Ynr_yhzg2Cxs7iqJ5G05THCDTpmKckqkjlLvdnlbuNUPNMrsUffIxSY7JrMTCptohNiqIc6r-T25kD1i3k5umNxlOZXlCeismEhCAB3Mv7QOBXaYELjAMMAQMGhSObGBsA4eBS5oSnhFZjXD04peOJA",
      "scope": "GOOGLE",
      "types": [
        "grocery_or_supermarket",
        "food",
        "store",
        "point_of_interest",
        "establishment"
      ],
      "vicinity": "Ankdammsgatan 35, Solna"
    },
    {
      "geometry": {
        "location": {
          "lat": 59.3618433,
          "lng": 17.9640338
        },
        "viewport": {
          "northeast": {
            "lat": 59.36315373029151,
            "lng": 17.9655122802915
          },
          "southwest": {
            "lat": 59.36045576970849,
            "lng": 17.9628143197085
          }
        }
      },
      "icon": "https://maps.gstatic.com/mapfiles/place_api/icons/shopping-71.png",
      "id": "47af3e4ee76a22219e990d1ef8b16eeb7164f0c9",
      "name": "Willys Stockholm Sundbyberg",
      "opening_hours": {
        "open_now": true,
        "weekday_text": []
      },
      "photos": [
        {
          "height": 960,
          "html_attributions": [
            "<a href=\"https://maps.google.com/maps/contrib/115387738210324832544/photos\">ahmed derdour</a>"
          ],
          "photo_reference": "CmRYAAAA6IppsjSoGDY2vooSjIOKYRWzDzyZothJLpBVkl2EzXuqmdzdZOaTOI_3Azf7Xt6tv39htK0S2ji5cU8TbDy0kyAlqzYaUZ_R9Rr1y5n6Zm9ripT6ehl9B8OPqUnZX1MHEhChnjVN5lHgKwQL5CzWHiobGhS81m9oUP4-1wqW007nBzBMDZh0xA",
          "width": 1280
        }
      ],
      "place_id": "ChIJFSlDpuGdX0YRmqHhuNNKBlY",
      "rating": 4,
      "reference": "CmRRAAAAvWzH5WjN_ZHNSIOLn2c0bZ7V69MDYKlSBApotz65PAGQPcukV-0rYkEcog4tIwKNx8xUM4rERkaAM6RGFzSd4svvORffVDWGbiy6JyArwdoBkYjFQGG7VuBiL4RvdyxbEhDtK8MhGDDctVv1DyZKnTd7GhT8iE_gNOLCK3xTP_orTMLF1Oxdbw",
      "scope": "GOOGLE",
      "types": [
        "grocery_or_supermarket",
        "food",
        "store",
        "point_of_interest",
        "establishment"
      ],
      "vicinity": "Esplanaden 1, Sundbyberg"
    },
    {
      "geometry": {
        "location": {
          "lat": 59.36118039999999,
          "lng": 17.9666518
        },
        "viewport": {
          "northeast": {
            "lat": 59.3626876302915,
            "lng": 17.9680268802915
          },
          "southwest": {
            "lat": 59.35998966970849,
            "lng": 17.9653289197085
          }
        }
      },
      "icon": "https://maps.gstatic.com/mapfiles/place_api/icons/shopping-71.png",
      "id": "681ac48d8c20ea6ac6fae876953b683349b90067",
      "name": "ICA Supermarket Sundbyberg",
      "opening_hours": {
        "open_now": true,
        "weekday_text": []
      },
      "photos": [
        {
          "height": 4032,
          "html_attributions": [
            "<a href=\"https://maps.google.com/maps/contrib/109717730832252362461/photos\">Jack White</a>"
          ],
          "photo_reference": "CmRYAAAATO_iEoE4syZgSyAX6f1dQLrfMhLOXU_0k50agh8mPCtHpu-E7zbEW1rXEt_u1v4J2caKFb3YNL3fciESCqHQvB8-KedYxvU5Mpmepa0zkJhwSuO81w_MnhEUFF5UxmTJEhCpftqCXH86wEczIAyXgAbcGhR-YPP9ODv40CNRowZca_7XhmHnJA",
          "width": 3024
        }
      ],
      "place_id": "ChIJaR3nIuGdX0YRosQa_xYIm2M",
      "rating": 3.8,
      "reference": "CmRRAAAAh1a7AYJadvSy0c3kQb_RIPe1URfs_Dx2tpo6F56Nl3zzMNUCCWfCZIh54INj988srmLSxCn9gzm4MUPDWI8ATOAC-yho9xOiWKz9s34iLp_JNSadfC-0ooB-2Uh7BmKmEhCgcoWs9wAZi_hvvUmcCBrWGhSJU4OkXrkSYSHtFVrxtCKpX7oong",
      "scope": "GOOGLE",
      "types": [
        "grocery_or_supermarket",
        "food",
        "store",
        "point_of_interest",
        "establishment"
      ],
      "vicinity": "Landsvägen 63, Sundbyberg"
    },
    {
      "geometry": {
        "location": {
          "lat": 59.3610219,
          "lng": 17.9693453
        },
        "viewport": {
          "northeast": {
            "lat": 59.36243038029151,
            "lng": 17.9707729802915
          },
          "southwest": {
            "lat": 59.35973241970849,
            "lng": 17.9680750197085
          }
        }
      },
      "icon": "https://maps.gstatic.com/mapfiles/place_api/icons/shopping-71.png",
      "id": "a9de41205103b8a6bb8e04bb09675599e88c19c5",
      "name": "Lidl",
      "opening_hours": {
        "open_now": true,
        "weekday_text": []
      },
      "photos": [
        {
          "height": 4032,
          "html_attributions": [
            "<a href=\"https://maps.google.com/maps/contrib/118167991554257986517/photos\">Marcin Niemczyk</a>"
          ],
          "photo_reference": "CmRYAAAAJx3Ur7AcrUb6-EosPpmjj2FdwMSeq1yrQYMNvYJxL2PDN7E3xgbtCkHGqpKiJel8KUjjrgvLLtefR6xGh4ByhE_4lbS46pOeWVpqiEaayXgizmG6tkA74sTaBlIq3C92EhDoZhUudcnVrvbry7OkUxdRGhRQOtmcutg-qwROupcd5TejMNsVsw",
          "width": 3024
        }
      ],
      "place_id": "ChIJuyac1OadX0YRGauSXuCaHs0",
      "rating": 3.7,
      "reference": "CmRSAAAA2OY7fD5S6xNcGpDLel1BdliqWkCF3E84HlymBw_U6HmV9C19sUt8PNy6xyW5VVL9WmYnYe484FS6nm6Zzv1PyeAt6uD9Ii2-lrx0GMLOXzRvadcz09ngm7SOE6FWb2ZrEhDO8Qz8nyhI8F5-fKfpRcIxGhQBny8O4FrVdv9bXVSmL3XLZp8M6g",
      "scope": "GOOGLE",
      "types": [
        "grocery_or_supermarket",
        "food",
        "store",
        "point_of_interest",
        "establishment"
      ],
      "vicinity": "Landsvägen 47, Sundbyberg"
    },
    {
      "geometry": {
        "location": {
          "lat": 59.3595458,
          "lng": 18.0006254
        },
        "viewport": {
          "northeast": {
            "lat": 59.3608947802915,
            "lng": 18.0019743802915
          },
          "southwest": {
            "lat": 59.3581968197085,
            "lng": 17.9992764197085
          }
        }
      },
      "icon": "https://maps.gstatic.com/mapfiles/place_api/icons/shopping-71.png",
      "id": "7ad4a262684174355afa5bbdcef5a23d5077c1aa",
      "name": "Hemköp",
      "opening_hours": {
        "open_now": true,
        "weekday_text": []
      },
      "photos": [
        {
          "height": 2976,
          "html_attributions": [
            "<a href=\"https://maps.google.com/maps/contrib/100757245527345671649/photos\">Karol D</a>"
          ],
          "photo_reference": "CmRYAAAAHMYkoDJd2dFDslKCNQbXUaD0lkEbyAFeZfZdzVyElwP3aQhSVkjx8bkVIPmPZ2JvVUKxI4e3bAYrxXAGFH2PJBfIIFfirjJTuGVHyCL2O94npbrqxBhVGQDzSXH_sWF7EhA7zC8b833gZyVyWmiCqaZqGhQr-vW0NTSNsVhF0A7wunoNGaeJbw",
          "width": 3968
        }
      ],
      "place_id": "ChIJrX-tXpWdX0YRu13kMvxEZSo",
      "rating": 3.9,
      "reference": "CmRRAAAAvThoTE9kMHgADEvUeVVs_fgTy927NgkDnHpOumQlCaAvenAZP1lM_LHhJVf2jfIqisxLP3qvypwJs6o6tQRheAVPY-E2FL6zN2T0vpF9GtmifsK5A5erPgzKXN4Qx_isEhCxGEJMknEFIah0De6bfCwfGhRInvIx4cnrHWU7sRhiflwrcipygQ",
      "scope": "GOOGLE",
      "types": [
        "grocery_or_supermarket",
        "post_office",
        "food",
        "finance",
        "store",
        "point_of_interest",
        "establishment"
      ],
      "vicinity": "Solna Centrum, SOLNA TORG 10, Solna"
    },
    {
      "geometry": {
        "location": {
          "lat": 59.3648027,
          "lng": 17.9817225
        },
        "viewport": {
          "northeast": {
            "lat": 59.36619893029151,
            "lng": 17.9829496802915
          },
          "southwest": {
            "lat": 59.3635009697085,
            "lng": 17.9802517197085
          }
        }
      },
      "icon": "https://maps.gstatic.com/mapfiles/place_api/icons/shopping-71.png",
      "id": "82c69cdaf0124655141bced841b5f25b2980fb3f",
      "name": "Coop Konsum",
      "opening_hours": {
        "open_now": true,
        "weekday_text": []
      },
      "photos": [
        {
          "height": 3000,
          "html_attributions": [
            "<a href=\"https://maps.google.com/maps/contrib/107258346699941797289/photos\">David Ljungström</a>"
          ],
          "photo_reference": "CmRYAAAAigdYvIeNfypYGqv1LpaCK4s1DEihmRCi67-z3sFdzMZyqOFdjwcohzB5MYle1pPdn7j87PKJBDWs1DNJdX0HtEQKBswhbtf0m8GQD9J8aLsjjwsCUSDiEHp6ozwRAdeTEhDhhV1YabL6NpHW35XeKY0YGhTSVLKyD1kteax7JZL50La8etb_1g",
          "width": 4000
        }
      ],
      "place_id": "ChIJ2UqdLd2dX0YRr8hWLxJDvqw",
      "rating": 3.5,
      "reference": "CmRSAAAAFKIBkPhWxhRxedUhxQln_29R9zG7puiHmIhVOUfpaDEVfdVtyDAM3pYfzIrs6vVkv48hZ2138CFVyFgEkOkKxsAH1Kp_qE4RcCLfL1abLUa59OtJojl2upx_NZkkONsWEhCFNi84gGDATUzLnVyDrp5JGhRqKH_MnquztSANnWFa7s_-YiHX_Q",
      "scope": "GOOGLE",
      "types": [
        "grocery_or_supermarket",
        "food",
        "store",
        "point_of_interest",
        "establishment"
      ],
      "vicinity": "Råsundavägen 163, Solna"
    },
    {
      "geometry": {
        "location": {
          "lat": 59.3605668,
          "lng": 18.0004439
        },
        "viewport": {
          "northeast": {
            "lat": 59.36191578029151,
            "lng": 18.0017928802915
          },
          "southwest": {
            "lat": 59.3592178197085,
            "lng": 17.9990949197085
          }
        }
      },
      "icon": "https://maps.gstatic.com/mapfiles/place_api/icons/shopping-71.png",
      "id": "983a27b15fed7c3507432f00bef3276d5a5e0972",
      "name": "ICA Kvantum Solna",
      "opening_hours": {
        "open_now": true,
        "weekday_text": []
      },
      "photos": [
        {
          "height": 4032,
          "html_attributions": [
            "<a href=\"https://maps.google.com/maps/contrib/115187089797999696475/photos\">Alexander Skvortsov</a>"
          ],
          "photo_reference": "CmRYAAAANfAiAQxTLpopNlb_nHd7f_4_Q2UxXf1ntM0xH_8aBof0x49rL_fGjjnF4-JEU4R3cWXB1v7wzHfsrFL0QhJOXKZ44o6zGxjWCeL5jnz2SIlkiJAq5XKV-Ovyy90xfj-8EhAb35izuWZqRuu06gGU-hWkGhTT98f5rlHP_UJAj0ekEJsga-9kOQ",
          "width": 3024
        }
      ],
      "place_id": "ChIJ52K8Z5WdX0YRypSy7hcqQWM",
      "rating": 4.1,
      "reference": "CmRRAAAAiMyc0zYk42kifYH8ZEQy5gO6eVEsrtCrHPf4hwqwIWy8N9D5fWH1Dw5tw_W62Z2ZhqNuAFiypWwaZwCvmHxeUUPTaynCRBDCmfk464QiV7SpXwQ2JQyd1C1iVY71DHn9EhBk-qApyQLraONamU-b3SaDGhS70TDIUtnKCvQNg16MinhpEtjbeQ",
      "scope": "GOOGLE",
      "types": [
        "grocery_or_supermarket",
        "food",
        "store",
        "point_of_interest",
        "establishment"
      ],
      "vicinity": "Postgången 22A, Solna"
    },
    {
      "geometry": {
        "location": {
          "lat": 59.347352,
          "lng": 17.96197799999999
        },
        "viewport": {
          "northeast": {
            "lat": 59.3486661802915,
            "lng": 17.9632456802915
          },
          "southwest": {
            "lat": 59.34596821970849,
            "lng": 17.96054771970849
          }
        }
      },
      "icon": "https://maps.gstatic.com/mapfiles/place_api/icons/generic_business-71.png",
      "id": "dc1c9e69edfbacb59fad9298a071ec0b2f2b7f9d",
      "name": "Martin Olsson Cashar AB",
      "opening_hours": {
        "open_now": true,
        "weekday_text": []
      },
      "photos": [
        {
          "height": 2268,
          "html_attributions": [
            "<a href=\"https://maps.google.com/maps/contrib/105896675627404941420/photos\">Christoffer Johansson</a>"
          ],
          "photo_reference": "CmRYAAAASjWKHCUkinoZaRMX5QpM6AP1eQNQY4esDcpH2schjDUdfTt6TZhbYDF7IlCVTVZyDYKdm34s_lAbAf5ur_RamZBjkzmEGbGrK1S-x-oSzqL4MvOZr46u3DD7aqXpVGHXEhAS4KJAF_wmWWEK0TiCwSQsGhRz71Dz5cLTsirSNqyIEg7v4gNz3w",
          "width": 4032
        }
      ],
      "place_id": "ChIJyVrcoOSdX0YRZW4Mr1AwBxA",
      "rating": 4.1,
      "reference": "CmRRAAAAyeEk20vXqr-d0WMck-6Rd62U3Qu_G3gHJ3MHntzdPxI07bEfy7a5MV8aEVAxs0SQAcjvwnBLMkA68YlYddwtq9WSnOvWjrr9MJClR1-uMrvKbgtZAjF4e3jXs121hnJoEhBtoPww0ZZNaGm78-4rTWeYGhSErSArITHjOZ1rEpJeiWiYmXEy7A",
      "scope": "GOOGLE",
      "types": [
        "grocery_or_supermarket",
        "food",
        "store",
        "point_of_interest",
        "establishment"
      ],
      "vicinity": "Ranhammarsvägen 10, Bromma"
    },
    {
      "geometry": {
        "location": {
          "lat": 59.3615112,
          "lng": 17.9728034
        },
        "viewport": {
          "northeast": {
            "lat": 59.3629217302915,
            "lng": 17.9742277802915
          },
          "southwest": {
            "lat": 59.3602237697085,
            "lng": 17.9715298197085
          }
        }
      },
      "icon": "https://maps.gstatic.com/mapfiles/place_api/icons/shopping-71.png",
      "id": "528c72220a739691633f386c593b68af45afd3c5",
      "name": "Sundbybergs Hemköp",
      "opening_hours": {
        "open_now": true,
        "weekday_text": []
      },
      "photos": [
        {
          "height": 3024,
          "html_attributions": [
            "<a href=\"https://maps.google.com/maps/contrib/113539536913556892913/photos\">Marcus Thyman</a>"
          ],
          "photo_reference": "CmRYAAAA-jFYjjyMMcy9m5K4YEAnCoAthkO07KuNDbFycXUnq0pT4jCToNimX80b_WNg0reOUq8ppr0ml3ftYF3nEimT6eWFvr9Tw9TOvCwvtWECosddJS1HecfH6TjJWQfcNsKWEhC-obxujBtGoKhAr7mOpPcwGhTZ4p1dacvYCxDCvMaIfhw3YJhK0A",
          "width": 4032
        }
      ],
      "place_id": "ChIJpWnkBOedX0YRiKIT7BB-G2g",
      "rating": 3.6,
      "reference": "CmRRAAAA9CpC-_LdykT4yaJLtmrvUaQKviUYxbI79ilbNq47zQqAnSJ8ydK4tY97TxyaFJ5hqhgDujmYPwKSQ9hxkkjrSTYicYYykUPiPEgWauctYU0U6nx23zPcUgTmjsDUCnZVEhC8TgwhGAXWQwf86JhADGwBGhRHPRRG9MqjByEqKJjZ_3eOi7dWWQ",
      "scope": "GOOGLE",
      "types": [
        "grocery_or_supermarket",
        "food",
        "store",
        "point_of_interest",
        "establishment"
      ],
      "vicinity": "Sturegatan 7, Sundbyberg"
    },
    {
      "geometry": {
        "location": {
          "lat": 59.349711,
          "lng": 17.9867866
        },
        "viewport": {
          "northeast": {
            "lat": 59.35102208029151,
            "lng": 17.9885076802915
          },
          "southwest": {
            "lat": 59.34832411970849,
            "lng": 17.9858097197085
          }
        }
      },
      "icon": "https://maps.gstatic.com/mapfiles/place_api/icons/shopping-71.png",
      "id": "27ba25b5f39c69f17f998d2acc5eddd02fb7ac98",
      "name": "Hemköp Huvudsta",
      "opening_hours": {
        "open_now": true,
        "weekday_text": []
      },
      "photos": [
        {
          "height": 2610,
          "html_attributions": [
            "<a href=\"https://maps.google.com/maps/contrib/113225572909793031707/photos\">Andreas Eriksson</a>"
          ],
          "photo_reference": "CmRYAAAACRHIkB5HfYc_9woVLLcKI3qBtfcJOntxLLgaZPTbTvo1bvpplbtbqkzPn0bm_1gEfavR-5fkzdV-4PA-euAYANS80Uc4iLGnht2u6CzeoDpm6TP6UJpsIp_gvvUyz26OEhCm8G0EXuMdabZaX2YGYdLgGhQ46OUbcwmkACetj248RsJTu1OhMg",
          "width": 4640
        }
      ],
      "place_id": "ChIJlRGknPKdX0YRytiLS6Zwin0",
      "rating": 3.6,
      "reference": "CmRRAAAAQfvDSFmmlpQGs-ZXWWvIH11UEP06B8-CMwaQ82a5nvZJ6vGQqDSEJNTRg6OiHrxnPHNeacnMgsbxD6JB38axhjREwN0Uv2lZtAwgem9w3iJGLcCfUCDd3RSYjDrknFvWEhA758azTB7CNCFRRJJQnEUqGhSEKj2A1SN2kjMBGj6Vf0CIPR3lVw",
      "scope": "GOOGLE",
      "types": [
        "grocery_or_supermarket",
        "food",
        "store",
        "point_of_interest",
        "establishment"
      ],
      "vicinity": "Huvudsta Centrum, Storgatan 62-64, Solna"
    },
    {
      "geometry": {
        "location": {
          "lat": 59.347886,
          "lng": 18.0033439
        },
        "viewport": {
          "northeast": {
            "lat": 59.3495343302915,
            "lng": 18.0049610302915
          },
          "southwest": {
            "lat": 59.3468363697085,
            "lng": 18.0022630697085
          }
        }
      },
      "icon": "https://maps.gstatic.com/mapfiles/place_api/icons/shopping-71.png",
      "id": "5bbd60b2d1458bf8c8f6f62bfd41cf5bae789e55",
      "name": "Coop Västra Skogen",
      "opening_hours": {
        "open_now": true,
        "weekday_text": []
      },
      "photos": [
        {
          "height": 4618,
          "html_attributions": [
            "<a href=\"https://maps.google.com/maps/contrib/107690418363845790065/photos\">Amin Vali</a>"
          ],
          "photo_reference": "CmRYAAAAQHJqNJjG0QzbKqbTRyxI5CUg0k5Dirc4soFw8IOO6WZ3dBFsg6cq3GQxjqpT34zsEY_0FJngYjfHKv36y2BzCEcgQ8VrmLM3Tb8NDH-GpEpGHRRw7gFQLVSnvEwljRuZEhCRNUj7mDIf2wCl2IT45P-wGhS3sQSMz4Xv2Gq993otBnfgYogGOg",
          "width": 3464
        }
      ],
      "place_id": "ChIJxblI0ZGdX0YRKpkvIeXTRig",
      "rating": 3.3,
      "reference": "CmRRAAAALFuJb_5ArKt6BHeOyepf2pDyB9dDrSSXoYPqNe80rvrCFHDac9ROkUYBHKtViwQFxoLGaqyH2xtYrwiB83bRv8z5U2x1x7ovMvSu6F8L_LEy3eJ3iZX_GhXMtsIsyHyKEhANuB_Gxyyytd4KOVgyRmcAGhSCmxDjh9YuWGpANCMrUexLGG6Bng",
      "scope": "GOOGLE",
      "types": [
        "grocery_or_supermarket",
        "food",
        "store",
        "point_of_interest",
        "establishment"
      ],
      "vicinity": "Johan Enbergs väg 16, Solna"
    },
    {
      "geometry": {
        "location": {
          "lat": 59.35086150000001,
          "lng": 18.0034596
        },
        "viewport": {
          "northeast": {
            "lat": 59.35216823029152,
            "lng": 18.0053604302915
          },
          "southwest": {
            "lat": 59.3494702697085,
            "lng": 18.0026624697085
          }
        }
      },
      "icon": "https://maps.gstatic.com/mapfiles/place_api/icons/shopping-71.png",
      "id": "4c5c4232836cac020d33a714391127fed132c1b6",
      "name": "ICA Nära Armégatan",
      "opening_hours": {
        "open_now": true,
        "weekday_text": []
      },
      "photos": [
        {
          "height": 2336,
          "html_attributions": [
            "<a href=\"https://maps.google.com/maps/contrib/116643380908645351171/photos\">Jörgen Roos</a>"
          ],
          "photo_reference": "CmRYAAAAAg_wJ44S87adLyrG6Avw539W5C38Hgof3kuK_M2hLE7F9mymBrw52_vkmJDt4dvEJFSOpQkYnZHBs065YwEnK51quezZ3oSxJQExlSLgknIOR80YpVMO5f7nBgBfw2DPEhBpYj0rWA--wi-Z_9Nha9IAGhSGwRrIuxkLpC0YjEl0uxVpZgpbdA",
          "width": 4160
        }
      ],
      "place_id": "ChIJ93aJeZGdX0YRap90H9Qu9ZU",
      "rating": 3.8,
      "reference": "CmRSAAAA0tV_nOt-tBumCV9yDe-24YCv0OM5eKdwi3KjPJ_j24TgBakMcyUo72-YpQ8RXXTbvngddty8ZbaFl55REBt-ppyzmv49bo8bBElNKFYKqyt_RMXOdOmOpJeW9M3OhAcFEhBSes2i4vIepEG4eYBGzDs7GhToEVDkI68Grpjb00Bakjzn3ZgR_g",
      "scope": "GOOGLE",
      "types": [
        "grocery_or_supermarket",
        "convenience_store",
        "food",
        "store",
        "point_of_interest",
        "establishment"
      ],
      "vicinity": "Armégatan 18, Solna"
    },
    {
      "geometry": {
        "location": {
          "lat": 59.3648933,
          "lng": 17.9942656
        },
        "viewport": {
          "northeast": {
            "lat": 59.3662707302915,
            "lng": 17.9956423302915
          },
          "southwest": {
            "lat": 59.36357276970849,
            "lng": 17.9929443697085
          }
        }
      },
      "icon": "https://maps.gstatic.com/mapfiles/place_api/icons/shopping-71.png",
      "id": "1eb8f600b11bbbe67398541e1aa0d1675fe4aa3a",
      "name": "ICA Nära Furuviks",
      "opening_hours": {
        "open_now": true,
        "weekday_text": []
      },
      "photos": [
        {
          "height": 3024,
          "html_attributions": [
            "<a href=\"https://maps.google.com/maps/contrib/115654646495028241995/photos\">Björn Larsson</a>"
          ],
          "photo_reference": "CmRYAAAArmcicM7wsm-qPw3ycV_9kl396im5-z0xHCLTmckMTSrxh29cC27jSBtKe-mQn1qLD9haDpfRiiAfPG92kJcNO7hOV_5xSdKbNHZo86rDZnrq5fSfm_E0OBfczYOO_SOiEhAzXwB032ZCqcsRzi-phM4YGhTeJD3J1O3eyhpwZ6IBXLVcgG-pfA",
          "width": 4032
        }
      ],
      "place_id": "ChIJo68lacGdX0YREIGc-nhM93Q",
      "rating": 4,
      "reference": "CmRRAAAA7wqv84xgnXYrm810z9lpOrDkQnLTwsbhhuJdtadOAmLNOWM3JtV7aK3VYQtYf-WeM4gxTohq_Be1IFCLDBp_bWRXvOH1GN9UqFnWB3oBvDiX4yQZ6mV1-RKEs2RYQ08mEhAyT9cDffz2eK7nBozX3PLKGhQk9-ze2UZFa11p6L1xGTW_Iib_dQ",
      "scope": "GOOGLE",
      "types": [
        "grocery_or_supermarket",
        "convenience_store",
        "food",
        "store",
        "point_of_interest",
        "establishment"
      ],
      "vicinity": "Råsundavägen 115, Solna"
    },
    {
      "geometry": {
        "location": {
          "lat": 59.350733,
          "lng": 17.9679844
        },
        "viewport": {
          "northeast": {
            "lat": 59.35175923029151,
            "lng": 17.9698225802915
          },
          "southwest": {
            "lat": 59.34906126970849,
            "lng": 17.9671246197085
          }
        }
      },
      "icon": "https://maps.gstatic.com/mapfiles/place_api/icons/shopping-71.png",
      "id": "363de42aad33ceadd754d50eab57f1b9cc964571",
      "name": "ÖoB",
      "opening_hours": {
        "open_now": true,
        "weekday_text": []
      },
      "photos": [
        {
          "height": 2448,
          "html_attributions": [
            "<a href=\"https://maps.google.com/maps/contrib/102318289943305211092/photos\">Karl Marklund</a>"
          ],
          "photo_reference": "CmRYAAAAt6bqjB3soGWbAPh4dHKeMF1O1LNk5D5oy9eMIDfRskWgs7se4d_ZVc5qEP2c9oxKgrjL_67450QdRPvS1nLxdXPmR5soxefwA0qDV03NxOLGnYu0Sqqd7Yuijq_qIcvHEhCsNtLt0bxVCr7VUdNmpMviGhTSbqz_akxfTmCr-i5JFnuL-icKUw",
          "width": 3264
        }
      ],
      "place_id": "ChIJ93Mk8_qdX0YRhXC2NKIGPlw",
      "rating": 3.6,
      "reference": "CmRRAAAA51ieUfn9LD8VpCFgYIzLhx3kzpfnIXnFgx-Pvho2VblkfUxkfFnjJdh4h-DL15cRtWcYIozA8j2EgeHJkx2w778QBtQ8umn-JJnbrPHnhCUIxIkY4Y59S6_aW4Vv7H9WEhA0Q65lGOXHqU4ABLTOn2VjGhTJCd3KcoXdbJw46NVXGwLZltPmOg",
      "scope": "GOOGLE",
      "types": [
        "department_store",
        "grocery_or_supermarket",
        "food",
        "home_goods_store",
        "store",
        "point_of_interest",
        "establishment"
      ],
      "vicinity": "Bryggerivägen 10, Bromma"
    },
    {
      "geometry": {
        "location": {
          "lat": 59.3499941,
          "lng": 17.9666022
        },
        "viewport": {
          "northeast": {
            "lat": 59.3510685302915,
            "lng": 17.9684472802915
          },
          "southwest": {
            "lat": 59.34837056970849,
            "lng": 17.9657493197085
          }
        }
      },
      "icon": "https://maps.gstatic.com/mapfiles/place_api/icons/shopping-71.png",
      "id": "2dc1e01a2972bddc89b3a929a5a40c92a449e5d8",
      "name": "Mathem.se",
      "photos": [
        {
          "height": 3264,
          "html_attributions": [
            "<a href=\"https://maps.google.com/maps/contrib/102318289943305211092/photos\">Karl Marklund</a>"
          ],
          "photo_reference": "CmRYAAAAJpBIVxFHFcCbpbkpHYH2IME550GIziS3F65BHRB0YPpTrchw8DHg6gpeo_cI3NTDUgw-Y2vvmwcKWsxUcHP2b5HJQNzCrnIJq9AmYvOEtgrApFQ0glVPtBpSqtuRQRxiEhBnaDpi4lckNUAJm4xC35HWGhQzL4Dcu1EY3ePVraGsB3Gz_Mw0Vw",
          "width": 2448
        }
      ],
      "place_id": "ChIJ-VTG-PqdX0YRaHqhGBlFPPY",
      "rating": 4,
      "reference": "CmRSAAAAjJ8uOqM-vpVm1tDyT-Y0zyvpXArSCCMfJlXFa__ZeZxpV54tZPMrf4c7MpoqYfA6HJGPcb98Uwai0MVEpiqeOGiRNiKpmak3bRyse8vezBnpMnrAUUf5XNlw4Ffw9SfuEhCentRLYuyuX5BahEZ_pgR3GhSeE-iZApL6JOgiAWDEuCETtItgog",
      "scope": "GOOGLE",
      "types": [
        "grocery_or_supermarket",
        "food",
        "store",
        "point_of_interest",
        "establishment"
      ],
      "vicinity": "Bryggerivägen 12C, Bromma"
    },
    {
      "geometry": {
        "location": {
          "lat": 59.3511248,
          "lng": 17.9659577
        },
        "viewport": {
          "northeast": {
            "lat": 59.3524737802915,
            "lng": 17.9673066802915
          },
          "southwest": {
            "lat": 59.34977581970849,
            "lng": 17.9646087197085
          }
        }
      },
      "icon": "https://maps.gstatic.com/mapfiles/place_api/icons/shopping-71.png",
      "id": "0ae6c2abf8b8ac187c107665f49a6cb110d44309",
      "name": "City Gross Bromma",
      "opening_hours": {
        "open_now": true,
        "weekday_text": []
      },
      "photos": [
        {
          "height": 2448,
          "html_attributions": [
            "<a href=\"https://maps.google.com/maps/contrib/110242297737716154471/photos\">Mely Mel</a>"
          ],
          "photo_reference": "CmRYAAAAmgrSIBefsFEEwxxy3ezulUYgXxWEOv3eR2UxPgL_1iSmAqxXo6YlXeL9fswZMWOP3pIk52O_DRDApkXKVdT6zGbU-JpMVGPdvAv3BCM_ZrxclLG0PzfTViUFUvl5zIiuEhArsjlGgIhgmg-mdLi_SbyRGhSA_NC0ZmamzLx-vABDlDWFV-dwqA",
          "width": 3264
        }
      ],
      "place_id": "ChIJvbEl8_qdX0YRvDHgdczyaqE",
      "rating": 4.1,
      "reference": "CmRSAAAAsmwLvnRiGrs1W-fR4eNdp1C1xqmmHmBcJHhRTxdw7mdEJRCkSablFfcWaE7rAiFjYxuiyeXBZ-q1vUMprGFNcNuUexZzhemIX_9ggSXyaHpGKwCIQoJSi1C_OP--5CKIEhAaB4IPZ14rTVRfCvb_EmPvGhTBaOhtK-uijZjHNMl8NJhaqhEmeA",
      "scope": "GOOGLE",
      "types": [
        "grocery_or_supermarket",
        "food",
        "store",
        "point_of_interest",
        "establishment"
      ],
      "vicinity": "Bryggerivägen 10, Bromma"
    },
    {
      "geometry": {
        "location": {
          "lat": 59.36070239999999,
          "lng": 17.9776239
        },
        "viewport": {
          "northeast": {
            "lat": 59.3620462802915,
            "lng": 17.9789580802915
          },
          "southwest": {
            "lat": 59.3593483197085,
            "lng": 17.9762601197085
          }
        }
      },
      "icon": "https://maps.gstatic.com/mapfiles/place_api/icons/shopping-71.png",
      "id": "10fa849460251e0c0c4eeace8b0e663b72b390ca",
      "name": "Smiling Faces AB",
      "opening_hours": {
        "open_now": true,
        "weekday_text": []
      },
      "photos": [
        {
          "height": 2976,
          "html_attributions": [
            "<a href=\"https://maps.google.com/maps/contrib/103368308470432883268/photos\">Jorge Armas</a>"
          ],
          "photo_reference": "CmRYAAAAg6jBJGh-UpPg8AzkV0rKkCx6KVpo455iHYutVRxoJIUvdFv7xPNZ2lGdpZzcKWqYmp689C8RiOQ89xWab0XCei8TdXY5jBai-ORoW0Jjh2_jYnpdBeRbtCEKlO__oVJlEhDYPbCCMDtArecz5yGV5EERGhTuAirFGvoTig3ZN7Y68LvVw-dtwA",
          "width": 3968
        }
      ],
      "place_id": "ChIJAfwgzuedX0YRpen8Dk2jsHs",
      "reference": "CmRRAAAAZ19bQZF7zCDZEktvy0GJOP4-_PJpg3WHecbamjPkPXi4xMxRUu6hT0DgYmCQeVpZln6fPQngodbc1ARO0jgitgvI0HjSeDRQTBmLfHHClk7wowJbhxrOUfF82O81k-UAEhAj17jWDzoWI4Pbm6jzUbk7GhSk8GqIizlvP_8j-NgybQsyJmjbdQ",
      "scope": "GOOGLE",
      "types": [
        "grocery_or_supermarket",
        "food",
        "store",
        "point_of_interest",
        "establishment"
      ],
      "vicinity": "Svetsarvägen 2, Solna"
    },
    {
      "geometry": {
        "location": {
          "lat": 59.35609369999999,
          "lng": 17.9968678
        },
        "viewport": {
          "northeast": {
            "lat": 59.3575584802915,
            "lng": 17.9982141302915
          },
          "southwest": {
            "lat": 59.35486051970849,
            "lng": 17.9955161697085
          }
        }
      },
      "icon": "https://maps.gstatic.com/mapfiles/place_api/icons/shopping-71.png",
      "id": "f831772535336cd7cd824dc46b0376b3863add5d",
      "name": "Polenspecialisten Sweden AB",
      "opening_hours": {
        "open_now": true,
        "weekday_text": []
      },
      "photos": [
        {
          "height": 2976,
          "html_attributions": [
            "<a href=\"https://maps.google.com/maps/contrib/104767895366654658140/photos\">Jakub Tomczak</a>"
          ],
          "photo_reference": "CmRYAAAA0rWshHt0DlUbyGtWb6JRt3QswCxK-zk3z65xq0zNlorGQ3f0vwRprvdHRERn7c8y4J3CPQnkk_3Sn-GIAeL077YZ5zDduR-PG1WFW5MzVTj49mmx1HkMZXRvn_fnVEG1EhCl7CHn-Prtxg925XsVK98ZGhSfjg_Jh-q_MPtDoykZ5PA7y46DVA",
          "width": 3968
        }
      ],
      "place_id": "ChIJVVVVSeudX0YR9dXNU5KJUIM",
      "rating": 4,
      "reference": "CmRSAAAA1V3ZNqHSSpEOhzn32Sq74KS5bC7oGVLYs5FK95vMJuA3R3179J6z09uy6faaHNsu42vo5BjjTOPfnimox0v2CTALvHS6diQpOZnlDhoDq8wEcE_uFy8MOjBoN_xX5QjKEhCVXf2d5kfHnCycrLe8KaMVGhRb9-njzIWvIpgesIFZ_XRQKtL4Ig",
      "scope": "GOOGLE",
      "types": [
        "grocery_or_supermarket",
        "food",
        "store",
        "point_of_interest",
        "establishment"
      ],
      "vicinity": "Ankdammsgatan 5, Solna"
    },
    {
      "geometry": {
        "location": {
          "lat": 59.3623614,
          "lng": 17.9824217
        },
        "viewport": {
          "northeast": {
            "lat": 59.3636844302915,
            "lng": 17.9838057302915
          },