{
  "gym": [
    {
      "geometry": {
        "location": {
          "lat": 59.3594585,
          "lng": 17.9798353
        },
        "viewport": {
          "northeast": {
            "lat": 59.3607599302915,
            "lng": 17.9810748802915
          },
          "southwest": {
            "lat": 59.35806196970849,
            "lng": 17.9783769197085
          }
        }
      },
      "icon": "https://maps.gstatic.com/mapfiles/place_api/icons/generic_business-71.png",
      "id": "c19112252511cd8bd3aedb5d841763197ea53561",
      "name": "Actic Stockholm - Solna",
      "opening_hours": {
        "open_now": true,
        "weekday_text": []
      },
      "photos": [
        {
          "height": 668,
          "html_attributions": [
            "<a href=\"https://maps.google.com/maps/contrib/105243387167454537119/photos\">Actic Stockholm - Solna</a>"
          ],
          "photo_reference": "CmRYAAAAiUNtOVPYyVt25FNa2X4ooJVpA7PUDN_BfDNbgNPfA-Vrok-zlOT6CwlyKQZDY45NL2z5D-OBjBHY1AzW8yS1refhyF2hr-oH3z194L7x2qnMU5PfZdThbV2W1fDglS_uEhBF0snNi8k0rNItvZfOSpjAGhTjb2eYksapyPJ3hQLzBDIiOtG-SA",
          "width": 1000
        }
      ],
      "place_id": "ChIJD27ajuidX0YRdNd1oPS2fB4",
      "rating": 2.3,
      "reference": "CmRRAAAAvZwdEqN25afIFaXpEb1gpuuKhD_PrqN8RtavM1mHHM79aLLzu_E2YN1obwPJaccRUqZNbmFtof3zhNTMl5jDhUtb6wObroVXhHeVFv-oAiR_eCWcz3jgfI-SloHEwIsxEhA-suysgpXW_ivlZusq1y8ZGhQufRPOQ3jvJM7USBBUKO-zY0U8PA",
      "scope": "GOOGLE",
      "types": [
        "gym",
        "spa",
        "health",
        "point_of_interest",
        "establishment"
      ],
      "vicinity": "Svetsarvägen 9B, Solna"
    },
    {
      "geometry": {
        "location": {
          "lat": 59.360885,
          "lng": 17.980825
        },
        "viewport": {
          "northeast": {
            "lat": 59.36193488029151,
            "lng": 17.9820356302915
          },
          "southwest": {
            "lat": 59.35923691970849,
            "lng": 17.9793376697085
          }
        }
      },
      "icon": "https://maps.gstatic.com/mapfiles/place_api/icons/generic_business-71.png",
      "id": "629ed10e2502e214a4e137b23d4f7a84c31076a2",
      "name": "Westninefitness",
      "opening_hours": {
        "open_now": false,
        "weekday_text": []
      },
      "photos": [
        {
          "height": 1741,
          "html_attributions": [
            "<a href=\"https://maps.google.com/maps/contrib/112522135413755976048/photos\">erling akesson</a>"
          ],
          "photo_reference": "CmRYAAAAVqi6RontothjUedkzdtPylKMjUltbCay9mqIYRBLkHbJ3E4X3tKbFdzwpbBGcOZ9mc85XB7kwlewyD2lVhRRurRGifVqHVfV82UPBWYeM13SoEA20b78MIpEc4UtMhy2EhBxrVVdxyB-bQVGImNxod0wGhTITkHtnaNr_ZUFssDe--JRZ5GzPw",
          "width": 3086
        }
      ],
      "place_id": "ChIJA3FotcGdX0YR5zGdVbGQYjo",
      "reference": "CmRRAAAA-wxMurzRuGOTlfh7_cN5QqDn0XtZ_i10GNRy5JOpZ_-8Nvas8qwcl20_dabPlTaTW8xdN6KRs0BDiwCS6zuYA_TreRhYfBwKJKSR170AK9-PI1CEJ7Zm1N6sOx6DvSXzEhAZlMBdr49SLuhVBIAxNn44GhS-e6CZzXr_2yUJziZHu1VwLAAaqA",
      "scope": "GOOGLE",
      "types": [
        "gym",
        "health",
        "point_of_interest",
        "establishment"
      ],
      "vicinity": "Englundavägen 7, Solna"
    },
    {
      "geometry": {
        "location": {
          "lat": 59.3498172,
          "lng": 17.9857992
        },
        "viewport": {
          "northeast": {
            "lat": 59.3509990302915,
            "lng": 17.9869733802915
          },
          "southwest": {
            "lat": 59.34830106970849,
            "lng": 17.9842754197085
          }
        }
      },
      "icon": "https://maps.gstatic.com/mapfiles/place_api/icons/generic_business-71.png",
      "id": "30144fb285ad94eb9da8f7befeadf69d486dd003",
      "name": "Fitness 24seven AB",
      "opening_hours": {
        "open_now": true,
        "weekday_text": []
      },
      "photos": [
        {
          "height": 2610,
          "html_attributions": [
            "<a href=\"https://maps.google.com/maps/contrib/113225572909793031707/photos\">Andreas Eriksson</a>"
          ],
          "photo_reference": "CmRYAAAAUIg83koL9kzMJidZTOcqxUFPNa1VEWgGQLFJOR8MuqUrNrHZiQw1xNtd0z5WVpvfE45IFp3WIARY0GTOLjQ7U_iQZoezde_nKent2QhHIIbV9quLBuTHaO4Ecp48ZKsbEhDuNc0aSownRcT49QbN5p6OGhTO80f_fPvk0wQsXxbEEBdQzE5AJQ",
          "width": 4640
        }
      ],
      "place_id": "ChIJX1JAh_KdX0YR4w6nShG7KsU",
      "rating": 5,
      "reference": "CmRSAAAAfGS6S9kUzFXRs4ZPDHv3L85wailbaKEd-Ao88HDct-EQxjwUFKrprYNhmm1hwBXi_aTSwjqpX_65F5gr6CNZ81JRObY8yxZAssFuoSFIscGIjlq8C9WbejIRqlJGNRTEEhD8BNlMGQVnHHfBmo4UKmkRGhQU0s0pVA2GsfDmX8h__BwQPoyg7w",
      "scope": "GOOGLE",
      "types": [
        "gym",
        "health",
        "point_of_interest",
        "establishment"
      ],
      "vicinity": "Storgatan 70, Solna"
    },
    {
      "geometry": {
        "location": {
          "lat": 59.3556878,
          "lng": 17.9748399
        },
        "viewport": {
          "northeast": {
            "lat": 59.3569374302915,
            "lng": 17.9765672802915
          },
          "southwest": {
            "lat": 59.35423946970849,
            "lng": 17.9738693197085
          }
        }
      },
      "icon": "https://maps.gstatic.com/mapfiles/place_api/icons/school-71.png",
      "id": "4cf14bdc5d4a5178387d06f53eaba0ee915135ed",
      "name": "Gymnastikförbundet Öst",
      "opening_hours": {
        "open_now": false,
        "weekday_text": []
      },
      "photos": [
        {
          "height": 800,
          "html_attributions": [
            "<a href=\"https://maps.google.com/maps/contrib/109093379295424334413/photos\">Kristian Gunnarsson</a>"
          ],
          "photo_reference": "CmRYAAAADXX_UqHrUXPxwgVtA7YHZpdSZ_w8AXoWjWhZyuOPozZR4UHgW_BtmwVncPSBmxXDqffC5_ObRNPdDUdGsgZg9-FMqQnSYjic_XQSDcY9MhfxRSLf47REyV5jQFMfd_xlEhDgGSwNrltyF8TE_e7Dw2mCGhTx_i5E3tby9OCy_KCByODjv7BSOA",
          "width": 1200
        }
      ],
      "place_id": "ChIJoS_I9OidX0YRx7_etehWVS4",
      "reference": "CmRRAAAAXzByPrRx7rIgWFFHUF6UblS1mv7HR_qMhYegxpimp-4h8-Bd4Cr5Byxns89LOKHg_-kyNS4j4uQ-0NcCH13NJ9VHPaGhkboyU1Vqd--BZr4xX6-etQiUsd3Nt8eBP9xNEhCN8eq_JbirFLlyO4DZ4AveGhQJV7cdKIpZrCV3Z0XKy0DV6wJ5-A",
      "scope": "GOOGLE",
      "types": [
        "gym",
        "health",
        "point_of_interest",
        "establishment"
      ],
      "vicinity": "Vretenvägen 4, Solna"
    },
    {
      "geometry": {
        "location": {
          "lat": 59.34988310000001,
          "lng": 17.9858759
        },
        "viewport": {
          "northeast": {
            "lat": 59.3510311802915,
            "lng": 17.9870147802915
          },
          "southwest": {
            "lat": 59.34833321970849,
            "lng": 17.9843168197085
          }
        }
      },
      "icon": "https://maps.gstatic.com/mapfiles/place_api/icons/generic_business-71.png",
      "id": "5e0ca90695008396cf95c19a7047881b60a4d406",
      "name": "Fitness24Seven",
      "opening_hours": {
        "open_now": true,
        "weekday_text": []
      },
      "photos": [
        {
          "height": 500,
          "html_attributions": [
            "<a href=\"https://maps.google.com/maps/contrib/107383598892534196101/photos\">Fitness24Seven</a>"
          ],
          "photo_reference": "CmRYAAAAtJmDp0jHSKkDglVp8iwQbgoxZzAOOi1bnSTX5N3sVI79oqv7SegQPCSt7a4C1HiQ2rD0PCTejarr-6pmaGZRCjhl1rZbgy0DOC_tL-ch-vA4VShSyY97BqUSZv7YXqNbEhD7As6g6jSFqqDY4MM5QYLtGhSDZrLHyQshIdJK8fLHAjlR6hn8Uw",
          "width": 500
        }
      ],
      "place_id": "ChIJh5bCfvKdX0YRFAImETKNlRw",
      "reference": "CmRRAAAAb7I0jTbuW5tjztWojnuz91LVXFnZre2IWW-WA0iHxeFD9rdHHJa6I0RmVM0fUV3Xg4-woIFtJnFExZZ9oDI14PaxrMbK5PdIriPoU-i3sgGsPSXPl1iynWgyhNH10rAGEhC-P_wqsePQO_yffvuszWJHGhT0exCX0ekHIv4ZF9VXTnMp-Xpv5Q",
      "scope": "GOOGLE",
      "types": [
        "gym",
        "health",
        "point_of_interest",
        "establishment"
      ],
      "vicinity": "Storgatan 70, Solna"
    },
    {
      "geometry": {
        "location": {
          "lat": 59.3558944,
          "lng": 17.9738213
        },
        "viewport": {
          "northeast": {
            "lat": 59.35723693029151,
            "lng": 17.9750571802915
          },
          "southwest": {
            "lat": 59.35453896970849,
            "lng": 17.9723592197085
          }
        }
      },
      "icon": "https://maps.gstatic.com/mapfiles/place_api/icons/generic_business-71.png",
      "id": "9c79c80a4b354c6161ed9659a70571b5d2a24b3d",
      "name": "Fitness24Seven",
      "opening_hours": {
        "open_now": true,
        "weekday_text": []
      },
      "photos": [
        {
          "height": 1080,
          "html_attributions": [
            "<a href=\"https://maps.google.com/maps/contrib/108072361284317210839/photos\">Fitness24Seven</a>"
          ],
          "photo_reference": "CmRYAAAAfWNEnMr38HavUWe2m2eSkAEIGPoge2hg8w0GaFBt3k2VFPf5qiDqQ4ZuUiFAayr96oIs7roR8kUMbCa55PeV0J1KL2XY31G4R__2z_JKRTFm1IdMdAb0qYetjB1_ayYdEhBklxUw4OybU9FKQUHeEFz8GhQEXVfou00L5VrLKJJK1fC1T7uzpw",
          "width": 1920
        }
      ],
      "place_id": "ChIJ3X3KhOWdX0YRFOvlmhDt5N8",
      "rating": 4,
      "reference": "CmRSAAAAfE7-4P-VMLguNKNQir1RIGeETPjMaSTYfAjCdQ8Pbd4HCluydYhWxr2h0GvTx7ATc4mRuVP-D5SffzP18-sDQZLP_wQZBvlr9l9B9TKUOur1keKmoytYP9gbTm8fn1VREhBL8mv-I-1v19bCQ1LmDaEeGhRAdjJFQYf2AjI1HvgaK9Zz2ohe3Q",
      "scope": "GOOGLE",
      "types": [
        "gym",
        "health",
        "point_of_interest",
        "establishment"
      ],
      "vicinity": "Torggatan 8, Solna"
    },
    {
      "geometry": {
        "location": {
          "lat": 59.35597480000001,
          "lng": 17.9738031
        },
        "viewport": {
          "northeast": {
            "lat": 59.35731733029151,
            "lng": 17.9750392302915
          },
          "southwest": {
            "lat": 59.35461936970849,
            "lng": 17.9723412697085
          }
        }
      },
      "icon": "https://maps.gstatic.com/mapfiles/place_api/icons/generic_business-71.png",
      "id": "51f7fb6638be8cc5b615fbe0445ace83d403438b",
      "name": "Fitness 24seven AB",
      "opening_hours": {
        "open_now": true,
        "weekday_text": []
      },
      "place_id": "ChIJAYnSk-WdX0YRLItTYznIOUA",
      "rating": 3,
      "reference": "CmRRAAAASzmnymDDsDCzibcmZuLG2hQh9WptVflkRbldYh2Ur6D_2b45PevmwEyaR59K9p2XIKE3oBxtXOF4_6w_6GNBlTtzZbsfQ4eG5YqcnkWiPRyHAboOaIWNrib7D5ug4mG_EhClTuTpofAe2slgPLYjFcXiGhSTrQFE45160KvsnoCZ2GcwCxsxzQ",
      "scope": "GOOGLE",
      "types": [
        "gym",
        "health",
        "point_of_interest",
        "establishment"
      ],
      "vicinity": "Torggatan 8, Solna"
    },
    {
      "geometry": {
        "location": {
          "lat": 59.35594,
          "lng": 17.9887122
        },
        "viewport": {
          "northeast": {
            "lat": 59.3573063802915,
            "lng": 17.9903014802915
          },
          "southwest": {
            "lat": 59.35460841970849,
            "lng": 17.98760351970849
          }
        }
      },
      "icon": "https://maps.gstatic.com/mapfiles/place_api/icons/generic_business-71.png",
      "id": "fd44046a6b0a607726375e8ee3ae610031ce421a",
      "name": "Forca Fighting mma klubb",
      "opening_hours": {
        "open_now": true,
        "weekday_text": []
      },
      "place_id": "ChIJsXtZi-udX0YRNsRNBJ6xqPM",
      "rating": 5,
      "reference": "CmRSAAAAWKLFwVtYvPDOl7H0pznjGAdL6rsgK0VqwNY6QFapJm6bCBHSf33SVSTzMEOx2b8xJYtwE-EPNxS3d_CQmw59F_C1yU1Dg9kFJxdjboPZgyGMJK12aYbWQQOGRxRKAzmwEhBUE_7WWSIW3afL10gaIO5_GhTK-j9SB9tY82Qrf3nF48SZQmbA9w",
      "scope": "GOOGLE",
      "types": [
        "gym",
        "health",
        "point_of_interest",
        "establishment"
      ],
      "vicinity": "Ankdammsgatan 23, Solna"
    },
    {
      "geometry": {
        "location": {
          "lat": 59.35643049999999,
          "lng": 17.9886056
        },
        "viewport": {
          "northeast": {
            "lat": 59.35779268029151,
            "lng": 17.9901870302915
          },
          "southwest": {
            "lat": 59.3550947197085,
            "lng": 17.9874890697085
          }
        }
      },
      "icon": "https://maps.gstatic.com/mapfiles/place_api/icons/generic_business-71.png",
      "id": "950cfe7f997631646e4848ba26a16f3819aec7df",
      "name": "SOLNA SHOTOKAN KARATEKLUBB",
      "opening_hours": {
        "open_now": true,
        "weekday_text": []
      },
      "place_id": "ChIJM_dV7eudX0YRY14O6763EkU",
      "reference": "CmRRAAAAwABj5zJ9hv7f_Dg4SIs0nYfewmJa4_T9d1h-LUdeBlL6g8UGrmY-SPpLmiopNU7n8B8Qydiv1-8Dl3DLhEKtzTlA5H-XjTo-vz6P4dZ-7NvB6EAtI01KLLfu_UflWroiEhA9M_NEityYbYB7vHPOAbQdGhQXqOZ985AhzjOcwxBhT4ezSr6Ncg",
      "scope": "GOOGLE",
      "types": [
        "gym",
        "health",
        "point_of_interest",
        "establishment"
      ],
      "vicinity": "Ankdammsgatan 23, Solna"
    },
    {
      "geometry": {
        "location": {
          "lat": 59.3586912,
          "lng": 17.9820979
        },
        "viewport": {
          "northeast": {
            "lat": 59.36020563029151,
            "lng": 17.9831688302915
          },
          "southwest": {
            "lat": 59.3575076697085,
            "lng": 17.98047086970849
          }
        }
      },
      "icon": "https://maps.gstatic.com/mapfiles/place_api/icons/generic_business-71.png",
      "id": "4cacaddf78c83237abffd717256e1dbd08a71818",
      "name": "Actic",
      "place_id": "ChIJe1KLa0svXEYRg0Xo9kla958",
      "rating": 5,
      "reference": "CmRSAAAASfZXJRd93_ZOpcr_TK-et6sB3McHwTFCfnQmuyovKk83pnMSIn7VtCYS48DLg8g716crNu4yOIt9BsRENenJTTTmljds5pGzSl-J_TsuPLyB1QGOquA_B1bEaPboACQkEhBwFkRQjXku_ViAxZaeDgfnGhSkllaxVg9YYHhdz0uwJfFy-YvWFA",
      "scope": "GOOGLE",
      "types": [
        "gym",
        "health",
        "point_of_interest",
        "establishment"
      ],
      "vicinity": "Smidesvägen 12, Solna"
    },
    {
      "geometry": {
        "location": {
          "lat": 59.359481,
          "lng": 17.9798829
        },
        "viewport": {
          "northeast": {
            "lat": 59.36077168029151,
            "lng": 17.9810978302915
          },
          "southwest": {
            "lat": 59.35807371970849,
            "lng": 17.9783998697085
          }
        }
      },
      "icon": "https://maps.gstatic.com/mapfiles/place_api/icons/generic_business-71.png",
      "id": "57871fdec8257a78e9edbe05b92e67399b6832bb",
      "name": "Itrim",
      "opening_hours": {
        "open_now": false,
        "weekday_text": []
      },
      "photos": [
        {
          "height": 500,
          "html_attributions": [
            "<a href=\"https://maps.google.com/maps/contrib/102764776276495991916/photos\">Itrim</a>"
          ],
          "photo_reference": "CmRYAAAAI-4Bl-FG0jlGyROyI90RxZg1QRIUc3Nw8jwlQANCX4HIoJ5-M2Ly0d4u2yqKEagPctGyAkcWrp7hZbx6BzYBvpGq9TwGIm3lso2r8NXjmnNEXkNeopT2_alHPU2tPUdrEhD4yWaMCwtNznyvwSyOWfeqGhS6txFwq_fA0csjQofUPhE6uQaHCg",
          "width": 500
        }
      ],
      "place_id": "ChIJoS_I9OidX0YRpyGybOA-goA",
      "rating": 1,
      "reference": "CmRSAAAAlamoDens-ybViDHaLGhdS1BRP9cEIVGs0SMQir13RhSGUD-YbhSRCTeMqIM2r3jUwyp0-F4RKf63TqqaMRYs3nN2QqGnS8TuRHwlQ73f1Pjv4UDHP2allMLd9mgDlOitEhAKEa-UFd7QZmZYPH_GyCqXGhT6brjdagSfVDiZN01H6r6iItLZ7A",
      "scope": "GOOGLE",
      "types": [
        "gym",
        "health",
        "point_of_interest",
        "establishment"
      ],
      "vicinity": "Svetsarvägen 13, Solna"
    },
    {
      "geometry": {
        "location": {
          "lat": 59.359142,
          "lng": 17.968224
        },
        "viewport": {
          "northeast": {
            "lat": 59.3604603302915,
            "lng": 17.9694810302915
          },
          "southwest": {
            "lat": 59.3577623697085,
            "lng": 17.9667830697085
          }
        }
      },
      "icon": "https://maps.gstatic.com/mapfiles/place_api/icons/generic_business-71.png",
      "id": "c9cfdd4fcafbe1e7a010909e0022c2751fa0e908",
      "name": "World Class Sundbyberg",
      "opening_hours": {
        "open_now": true,
        "weekday_text": []
      },
      "photos": [
        {
          "height": 250,
          "html_attributions": [
            "<a href=\"https://maps.google.com/maps/contrib/115792876627140292592/photos\">World Class Sundbyberg</a>"
          ],
          "photo_reference": "CmRYAAAAKIr6GYTAv23hj5rsWsscIQcVIgX4R3T4E0kkEDyBYMip4c6fnAFyrR9iAAhMI_dINqa5EGt9eL3J8uh2MywBlIGik7daeC46LX59u7s-yiFIvDdJJmeUXP5dT0P21PMSEhC7O0ekD3p5mnhmVJ0UAJMzGhT3og-dFCZth9ZGsEAChLW-lwtn0g",
          "width": 250
        }
      ],
      "place_id": "ChIJ_9OJruadX0YRd0-EXu8f3NE",
      "reference": "CmRSAAAA14FXqYV9dPBS1NMlnoTseWwyFXpvas0qOJXEb5_jdgozMnso3aE4LruuTi3kISabSR2AqZ8AUmnogNwBU3wWBNY_U6krYWoy3aMMa-lRgTuNH2zWgP9QXNx12aHklAllEhAyhZypbwW1JcvGflRO4wIoGhRnCGSK-mmPtgI92TEyk7Z7nbEcQw",
      "scope": "GOOGLE",
      "types": [
        "gym",
        "health",
        "point_of_interest",
        "establishment"
      ],
      "vicinity": "Humblegatan 22, Sundbyberg"
    },
    {
      "geometry": {
        "location": {
          "lat": 59.3537924,
          "lng": 17.9968858
        },
        "viewport": {
          "northeast": {
            "lat": 59.3551662802915,
            "lng": 17.9983362302915
          },
          "southwest": {
            "lat": 59.35246831970849,
            "lng": 17.9956382697085
          }
        }
      },
      "icon": "https://maps.gstatic.com/mapfiles/place_api/icons/generic_business-71.png",
      "id": "ec836368ce66743f724ffc53e8e815e38a0d3dc2",
      "name": "Fitness24Seven",
      "opening_hours": {
        "open_now": true,
        "weekday_text": []
      },
      "photos": [
        {
          "height": 3024,
          "html_attributions": [
            "<a href=\"https://maps.google.com/maps/contrib/112089011399638150248/photos\">André Costa</a>"
          ],
          "photo_reference": "CmRYAAAAVuy4yYszCGye-BALQN1-3XTC33AM1lDroTwCYM0KLibDwq8OqFnuMQAlnkco3_02jaDrFE-f-QF275yf7CpdcYS4it8RPcx7sQNJVE0C9VqOxZRBIBhmaiTZSkxQ5iOTEhDMKau1YIIcwucDB9z302dSGhQOREhEUHmdLf_5-xg_ufc1s2mnpA",
          "width": 4032
        }
      ],
      "place_id": "ChIJIV0CaJOdX0YRmcx4Sqg5V4I",
      "reference": "CmRSAAAAgqg_dxxEaCCeEiFrrEzibWJD3dXr7DzbWVBMGv1iSO7IwpW6OD-qBL5GN20h7MiOWI2apIyWrjniUOe61WkEN9pNR-nNtbMPV_-dYHhWxXf7M853BWoUL78R-cjo3_crEhASGO2jBhHeVFA7S3KjkymTGhTXyDBL_d7TciG7LmbNdtumm0Q55w",
      "scope": "GOOGLE",
      "types": [
        "gym",
        "health",
        "point_of_interest",
        "establishment"
      ],
      "vicinity": "Huvudstagatan 4, Solna"
    },
    {
      "geometry": {
        "location": {
          "lat": 59.35745350000001,
          "lng": 17.9925063
        },
        "viewport": {
          "northeast": {
            "lat": 59.3588147302915,
            "lng": 17.9936601302915
          },
          "southwest": {
            "lat": 59.35611676970849,
            "lng": 17.9909621697085
          }
        }
      },
      "icon": "https://maps.gstatic.com/mapfiles/place_api/icons/generic_business-71.png",
      "id": "02c08a7f2382e0d203935eb3fb67e3b2c1fd7799",
      "name": "Inclined Labs AB",
      "place_id": "ChIJzzUTBuudX0YRqyS7XyQfZtU",
      "reference": "CmRSAAAAbS98DLzwcI2O83pASox76pQxawQ5o4lU9c9ix67gS9OFiQUG3b_1QX0YNUyMJhtt47ZzCAgYujllXAeMPKFhZK99u2D1O4NYCkWPj1kma-I6v4ipCTe9xAQxvL4idurxEhBFZcJ0-c3SfIYnSyHhE2wYGhScgQoNKRFU2CQx9d2w14gwzSp-aA",
      "scope": "GOOGLE",
      "types": [
        "gym",
        "health",
        "point_of_interest",
        "establishment"
      ],
      "vicinity": "Nybodagatan 16, Solna"
    },
    {
      "geometry": {
        "location": {
          "lat": 59.36015699999999,
          "lng": 17.972423
        },
        "viewport": {
          "northeast": {
            "lat": 59.36144048029151,
            "lng": 17.9736586302915
          },
          "southwest": {
            "lat": 59.3587425197085,
            "lng": 17.9709606697085
          }
        }
      },
      "icon": "https://maps.gstatic.com/mapfiles/place_api/icons/generic_business-71.png",
      "id": "8283672df21e7dbb107368106ead2a3aeb98ed72",
      "name": "Puls & Träning",
      "opening_hours": {
        "open_now": true,
        "weekday_text": []
      },
      "place_id": "ChIJi76J8OadX0YRFD1zbbJmBOY",
      "reference": "CmRSAAAA7Zd-Yl-duUCfXW3JocCASx373zqxB2N4MRvrTOJG1QZdLkfJMGywoIMTmenah7Fe3AdKKppoKvtToY6qg9-waJ1IamvppjGbbrUFBcGTvk3gmzsRkIRblY0YThGrTWgkEhB5n0WOdaZArICGrPRZhHZYGhQLAV6uBvsuXkKAJgEmYZNvkP9Axw",
      "scope": "GOOGLE",
      "types": [
        "gym",
        "health",
        "point_of_interest",
        "establishment"
      ],
      "vicinity": "Landsvägen 50, Sundbyberg"
    },
    []
  ],
  "grocery_or_supermarket": [
    {
      "geometry": {
        "location": {
          "lat": 59.3511248,
          "lng": 17.9659577
        },
        "viewport": {
          "northeast": {
            "lat": 59.3524737802915,
            "lng": 17.9673066802915
          },
          "southwest": {
            "lat": 59.34977581970849,
            "lng": 17.9646087197085
          }
        }
      },
      "icon": "https://maps.gstatic.com/mapfiles/place_api/icons/post_office-71.png",
      "id": "01c7033404748234d809c7efd6aa4f6755fd92df",
      "name": "Postombud på City Gross Bromma",
      "opening_hours": {
        "open_now": true,
        "weekday_text": []
      },
      "photos": [
        {
          "height": 2003,
          "html_attributions": [
            "<a href=\"https://maps.google.com/maps/contrib/111910759606368254350/photos\">飯塚誠</a>"
          ],
          "photo_reference": "CmRYAAAAFw75z8v1fjGb3Lya94s1DyQXhBt3kpHxPc8mFpq7SPS6F-EMuveg8bO4Q2LiOV_RRc8cx4bYCk8HsEnQsx3_rrHYNGpXCj-YumLSsQs58ffiz1rl7yS5RvqvQSuMcx2REhD-p2kLDJF5x6oPxa9DE0zTGhS30PYMk5zeE7uGuLvqNGuYJZHQQQ",
          "width": 2785
        }
      ],
      "place_id": "ChIJJZAS8_qdX0YRNW7Vf0YDG34",
      "rating": 3.9,
      "reference": "CmRRAAAAZ-a-k57A3z_2Ro6nuXzVkiqrtNilsKK6htH7LtCz1qp0MSO6FGBg3INK3vdVGgmY_EhjvMdws44OklWIhD8kEuDIgSFX7mr2CX-fkKWEXm9Xox_aElhV3UC1dqEbZoFTEhAmO_i4zHpa0W4lFNI-RhvkGhQep-B_ny1Hb1acjxTc3ldZHuVcsQ",
      "scope": "GOOGLE",
      "types": [
        "post_office",
        "shopping_mall",
        "grocery_or_supermarket",
        "food",
        "finance",
        "store",
        "point_of_interest",
        "establishment"
      ],
      "vicinity": "Bryggerivägen 10, Bromma"
    },
    {
      "geometry": {
        "location": {
          "lat": 59.3585295,
          "lng": 17.9806792
        },
        "viewport": {
          "northeast": {
            "lat": 59.35993433029151,
            "lng": 17.9821502302915
          },
          "southwest": {
            "lat": 59.3572363697085,
            "lng": 17.9794522697085
          }
        }
      },
      "icon": "https://maps.gstatic.com/mapfiles/place_api/icons/shopping-71.png",
      "id": "17e76c2270d109053ee7f44c16ad3ea211641d6e",
      "name": "ICA Maxi Stormarknad Solna",
      "opening_hours": {
        "open_now": true,
        "weekday_text": []
      },
      "photos": [
        {
          "height": 3024,
          "html_attributions": [
            "<a href=\"https://maps.google.com/maps/contrib/104511208322318880536/photos\">Claes Mogren</a>"
          ],
          "photo_reference": "CmRYAAAAl6lTy6r-75GyXv22Csjs2oXe5aG_HaCR5WO7od5s77MIv6vPfMmn9aGiFDsa-vMQQJaI4DRjHkMXJiC-6EdhuzootRa4KjzkBlYAg-aK-xsuHj7AcCxRvoct6JOmDRQIEhBHHDFybUXpTfCGd0_CVE4zGhQEW9fHF1fILIhC8evUdwEg3BnDgg",
          "width": 4032
        }
      ],
      "place_id": "ChIJj2UVkuidX0YRTYMsbQEsCPI",
      "rating": 4.1,
      "reference": "CmRSAAAAP51a0FKVdfIchoilyS_bXVX3KbO4t9gI3Fw_NZs5qj9tuJHAW8Y9Km6M9Cw2aiadeYWD0bwNTgPLOBgAtEy263_Uf8lgEKgjtkZJVvdUvNu8dpBwp75YCsLumpk3NPLGEhCU1aIUj2BbMcKl-bbTWZjiGhRHoXhuAiW4x5LVmzjjSMMcvvWtEQ",
      "scope": "GOOGLE",
      "types": [
        "grocery_or_supermarket",
        "food",
        "store",
        "point_of_interest",
        "establishment"
      ],
      "vicinity": "Svetsarvägen 18, Solna"
    },
    {
      "geometry": {
        "location": {
          "lat": 59.3577732,
          "lng": 17.9864511
        },
        "viewport": {
          "northeast": {
            "lat": 59.35934833029151,
            "lng": 17.9881723302915
          },
          "southwest": {
            "lat": 59.3566503697085,
            "lng": 17.9854743697085
          }
        }
      },
      "icon": "https://maps.gstatic.com/mapfiles/place_api/icons/shopping-71.png",
      "id": "1f69af511cd2e77b8dcbc24343a76ed58a575e61",
      "name": "Lidl",
      "opening_hours": {
        "open_now": false,
        "weekday_text": []
      },
      "photos": [
        {
          "height": 2204,
          "html_attributions": [
            "<a href=\"https://maps.google.com/maps/contrib/106775251548621923887/photos\">Alex Arhipov</a>"
          ],
          "photo_reference": "CmRYAAAAW66P48tQKzxRzuFqfKsisVBNMmiKBk9pGgOiD2Jqh9Zu-v7C0DkrQq1mVRHp3K-86I_70KUHhCQV2UBgCPAlxG6l7pgReDEj4bCiB2DuP-opk-ZyikdN06J52Q7bVwfTEhCaCWxvr3AYNXo1P32GHBOZGhTQl48wHU0jgbg7N9liyxsj-JAdvg",
          "width": 3920
        }
      ],
      "place_id": "ChIJB5pFYemdX0YRJZpFE1Hm1f0",
      "rating": 3.8,
      "reference": "CmRSAAAAUm8Us4iQgHuVudshsQFgJDOYFP7zUviczYj4T-NAPgNZ7SuPjrIm0aKPtNm_0jYlFxu-74vXkiv95YBttK5xYOjheQOBfKw1ILpyA5E71RFWcOArcbyUlCi2tVwpamYREhBOpJglgM94pHJSVWkDqmXDGhSdjB669v9wtUKnW5_EPRYd87bpEA",
      "scope": "GOOGLE",
      "types": [
        "grocery_or_supermarket",
        "food",
        "store",
        "point_of_interest",
        "establishment"
      ],
      "vicinity": "Ankdammsgatan 35, Solna"
    },
    {
      "geometry": {
        "location": {
          "lat": 59.349711,
          "lng": 17.9867866
        },
        "viewport": {
          "northeast": {
            "lat": 59.35102208029151,
            "lng": 17.9885076802915
          },
          "southwest": {
            "lat": 59.34832411970849,
            "lng": 17.9858097197085
          }
        }
      },
      "icon": "https://maps.gstatic.com/mapfiles/place_api/icons/shopping-71.png",
      "id": "27ba25b5f39c69f17f998d2acc5eddd02fb7ac98",
      "name": "Hemköp Huvudsta",
      "opening_hours": {
        "open_now": true,
        "weekday_text": []
      },
      "photos": [
        {
          "height": 2610,
          "html_attributions": [
            "<a href=\"https://maps.google.com/maps/contrib/113225572909793031707/photos\">Andreas Eriksson</a>"
          ],
          "photo_reference": "CmRYAAAAU0kq5nCWWqkb0dIhlLUMjjXrYxt0T0eKUzcVbfBYSXuaiksp4G4tbr3zCtBMZ5nSgC57lVyiYFGwPV7WaPXhcf3xZkrhwCIP9p8UZC8s8-1D3JoN8jYneedt6xD8i8C6EhBoUZQCrCwD6hNb7UhyJ1HDGhTsMkNFwf1ZIitTjB88ksjUb7ExQg",
          "width": 4640
        }
      ],
      "place_id": "ChIJlRGknPKdX0YRytiLS6Zwin0",
      "rating": 3.6,
      "reference": "CmRRAAAAsm-IGbqBtwx1FSvV-rFebklXto9-pQPseKbXLL_Qvge8qBMEa7SlM4yAQgUHPOjkUR7CWJbmz1aXwoFxaLMr7-BpnvTr3ABsArBGZdLOR9Q5ZtYyFT2mRm5ZBkoqzr-XEhAHkiJHJsdnVXHijEx7ZwHxGhTIH-xI3MTCSMTjwVxbV7by7EAYJQ",
      "scope": "GOOGLE",
      "types": [
        "grocery_or_supermarket",
        "food",
        "store",
        "point_of_interest",
        "establishment"
      ],
      "vicinity": "Huvudsta Centrum, Storgatan 62-64, Solna"
    },
    {
      "geometry": {
        "location": {
          "lat": 59.350733,
          "lng": 17.9679844
        },
        "viewport": {
          "northeast": {
            "lat": 59.35175923029151,
            "lng": 17.9698225802915
          },
          "southwest": {
            "lat": 59.34906126970849,
            "lng": 17.9671246197085
          }
        }
      },
      "icon": "https://maps.gstatic.com/mapfiles/place_api/icons/shopping-71.png",
      "id": "363de42aad33ceadd754d50eab57f1b9cc964571",
      "name": "ÖoB",
      "opening_hours": {
        "open_now": false,
        "weekday_text": []
      },
      "photos": [
        {
          "height": 2448,
          "html_attributions": [
            "<a href=\"https://maps.google.com/maps/contrib/102318289943305211092/photos\">Karl Marklund</a>"
          ],
          "photo_reference": "CmRYAAAAAjXiIPnE1F51IAlvZUYAYZViwMCZkkfZnF2kQXR7-hdj6uHN0ugqZEoWoGe0f2HGGhs6CNCEdFwZrT80WcDFDhLWFjitdxEIebFsxG9vHrIFF8fFNr2LJPxj67DXEaTAEhAiX0VwwbI7zOSkpwJb3brAGhRXdQ69Dg56th-UPE7vf3cpIrFCaw",
          "width": 3264
        }
      ],
      "place_id": "ChIJ93Mk8_qdX0YRhXC2NKIGPlw",
      "rating": 3.6,
      "reference": "CmRRAAAAHH7-ln8iuBRBXvFgglXpj9dZfGacUVrc4lmOqaZ4VZvlNFKd9R5ZxMs3LQV-2cST13c47QRniWJN0ZOjdg2-zd_shLiTaJdb_Ib3egE55lMsQEpoWuIngYXlpS-nYFRsEhCnRhEEM3woERtQ0nmf1LDKGhQLtrj4mxg6Nwixdfy5zmVJbd2_4g",
      "scope": "GOOGLE",
      "types": [
        "department_store",
        "grocery_or_supermarket",
        "food",
        "home_goods_store",
        "store",
        "point_of_interest",
        "establishment"
      ],
      "vicinity": "Bryggerivägen 10, Bromma"
    },
    {
      "geometry": {
        "location": {
          "lat": 59.3499941,
          "lng": 17.9666022
        },
        "viewport": {
          "northeast": {
            "lat": 59.3510685302915,
            "lng": 17.9684472802915
          },
          "southwest": {
            "lat": 59.34837056970849,
            "lng": 17.9657493197085
          }
        }
      },
      "icon": "https://maps.gstatic.com/mapfiles/place_api/icons/shopping-71.png",
      "id": "2dc1e01a2972bddc89b3a929a5a40c92a449e5d8",
      "name": "Mathem.se",
      "photos": [
        {
          "height": 3264,
          "html_attributions": [
            "<a href=\"https://maps.google.com/maps/contrib/102318289943305211092/photos\">Karl Marklund</a>"
          ],
          "photo_reference": "CmRYAAAARZHSKkbWn-0aX--B2dkMveMJxkO_z6ZZBIQzooT8v66hnp6U00KK5Ucr_ysCe-VJEH7Ebfm1NOGR39Ccq3hL5kYEnCB1yeQyYExtoe7WRgV0Mdx9agVVSgQarKi_RXc3EhCERllMgnygbnkbuVCRZ1xwGhQ52mS6jYNB8tROyIaMXHGhLX7eZw",
          "width": 2448
        }
      ],
      "place_id": "ChIJ-VTG-PqdX0YRaHqhGBlFPPY",
      "rating": 4,
      "reference": "CmRSAAAAdJ3ajYv3PeghmKGGKo2f36vsXifnFFSYc-KATN9Q1Vhvx6UfQO6K0E5JV2vYHcTIY9tOxRkDKTSFgeezqFnQ_liMHWTnxZV71FwInePPjhwmTwqINALgbXKgW4fiMOONEhB9fa09eWK9Nim6NNyhFfspGhQkt_PrcAoV8u1mwOYW03nSSXeq6A",
      "scope": "GOOGLE",
      "types": [
        "grocery_or_supermarket",
        "food",
        "store",
        "point_of_interest",
        "establishment"
      ],
      "vicinity": "Bryggerivägen 12C, Bromma"
    },
    {
      "geometry": {
        "location": {
          "lat": 59.3511248,
          "lng": 17.9659577
        },
        "viewport": {
          "northeast": {
            "lat": 59.3524737802915,
            "lng": 17.9673066802915
          },
          "southwest": {
            "lat": 59.34977581970849,
            "lng": 17.9646087197085
          }
        }
      },
      "icon": "https://maps.gstatic.com/mapfiles/place_api/icons/shopping-71.png",
      "id": "0ae6c2abf8b8ac187c107665f49a6cb110d44309",
      "name": "City Gross Bromma",
      "opening_hours": {
        "open_now": true,
        "weekday_text": []
      },
      "photos": [
        {
          "height": 2448,
          "html_attributions": [
            "<a href=\"https://maps.google.com/maps/contrib/110242297737716154471/photos\">Mely Mel</a>"
          ],
          "photo_reference": "CmRYAAAAuwDih48OopHeNk0XVgxryi92vFOs061iG81K06m2tutWApIEmwdYJSHLPdK5X8wBn8h3veLjyD_Ph6PKoxa827ZhA_3D4fc1nTN_Pat5m2-EJMjuCrKZ38ljMtFGWnjNEhBwtDrDtTvF04tQF_ltdg6pGhTKD01BH91i2QSpBa4l-bt0g5G1Ew",
          "width": 3264
        }
      ],
      "place_id": "ChIJvbEl8_qdX0YRvDHgdczyaqE",
      "rating": 4.1,
      "reference": "CmRSAAAA6CSFua6vwCXCCcex6PTFNmDKuhodRHhVGcq5HZyRQ2xd2u4RnY3j5C3RgQNFb_nsSKe2h-1G2SP4-n3POF8Pznj6oWcC-PmF6tLiAsF6xeycjTWb0zkGbqX5LATXC9UNEhAGj1MmHYFvdQ2Hp4qIZC-JGhQAy-lGdKZl2qSKi8fIKJm6CWZ7rQ",
      "scope": "GOOGLE",
      "types": [
        "grocery_or_supermarket",
        "food",
        "store",
        "point_of_interest",
        "establishment"
      ],
      "vicinity": "Bryggerivägen 10, Bromma"
    },
    {
      "geometry": {
        "location": {
          "lat": 59.36070239999999,
          "lng": 17.9776239
        },
        "viewport": {
          "northeast": {
            "lat": 59.3620462802915,
            "lng": 17.9789580802915
          },
          "southwest": {
            "lat": 59.3593483197085,
            "lng": 17.9762601197085
          }
        }
      },
      "icon": "https://maps.gstatic.com/mapfiles/place_api/icons/shopping-71.png",
      "id": "10fa849460251e0c0c4eeace8b0e663b72b390ca",
      "name": "Smiling Faces AB",
      "opening_hours": {
        "open_now": false,
        "weekday_text": []
      },
      "photos": [
        {
          "height": 2976,
          "html_attributions": [
            "<a href=\"https://maps.google.com/maps/contrib/103368308470432883268/photos\">Jorge Armas</a>"
          ],
          "photo_reference": "CmRYAAAAOLzhaVS2LwfhiJHj114gGVDPI1TrBiW538_iEjLs7FV94b0xQY3HUbpJJJdghf7B2WK-8MQ3cPl5r5FTht-dZGK5PkVhtAQUgYxDtT-5x7CK-IPkwNa_FG3TYcGXq_fUEhA2FkLwt4x_Y8gGN1Jz9O6BGhTj23vuJiQ200xXrnHaCydoSTX8iw",
          "width": 3968
        }
      ],
      "place_id": "ChIJAfwgzuedX0YRpen8Dk2jsHs",
      "reference": "CmRRAAAACtUCGfQsaEcRHByy_CuGMc8KtF6qXzLOFW6lT1pgRDl61D4gnwoS7-CdxLXVmrf9xqmqQG2Uar_sLv1PrvdbXldKkACx_ktQEXcp_V6LPTu7poz8kseo_13A5ubWR0bOEhDCGKYoVK3jEHsjvIqLwwACGhSj5wQTjxD74jnO-wzaZuquV7eOHA",
      "scope": "GOOGLE",
      "types": [
        "grocery_or_supermarket",
        "food",
        "store",
        "point_of_interest",
        "establishment"
      ],
      "vicinity": "Svetsarvägen 2, Solna"
    }
  ],
  "convenience_store": [
    {
      "geometry": {
        "location": {
          "lat": 59.354627,
          "lng": 17.9734642
        },
        "viewport": {
          "northeast": {
            "lat": 59.35605458029151,
            "lng": 17.9747970302915
          },
          "southwest": {
            "lat": 59.3533566197085,
            "lng": 17.9720990697085
          }
        }
      },
      "icon": "https://maps.gstatic.com/mapfiles/place_api/icons/shopping-71.png",
      "id": "67b692a1b76f3fec20776d01346fcaa766f7eeec",
      "name": "Pressbyrån",
      "opening_hours": {
        "open_now": false,
        "weekday_text": []
      },
      "place_id": "ChIJv_XylOWdX0YRV-iA1wCwcb4",
      "rating": 4,
      "reference": "CmRSAAAAD_rC2JZen-QffLDteHJCDUbKO96FRTbr2bu_jTpFFu8PrF_5EEn-r9Gqf63H8IA5MKiBB7ddFQ-TZAn_LgabmHNXCry2G9YJv23LzHriEOt3WGQ0yCVOkVXnGwxt5I74EhCDjUSd8uEo-748q_SIKGAiGhQowsjI9shbO0oHRF3VYZ9IGcfHrw",
      "scope": "GOOGLE",
      "types": [
        "convenience_store",
        "book_store",
        "restaurant",
        "food",
        "store",
        "point_of_interest",
        "establishment"
      ],
      "vicinity": "Korta gatan 7, Solna"
    },
    {
      "geometry": {
        "location": {
          "lat": 59.3609818,
          "lng": 17.9746024
        },
        "viewport": {
          "northeast": {
            "lat": 59.3623800302915,
            "lng": 17.9760108802915
          },
          "southwest": {
            "lat": 59.3596820697085,
            "lng": 17.9733129197085
          }
        }
      },
      "icon": "https://maps.gstatic.com/mapfiles/place_api/icons/shopping-71.png",
      "id": "d85525914afaedc6124b1e8a857c876b1a6b6975",
      "name": "Hemmakväll",
      "opening_hours": {
        "open_now": true,
        "weekday_text": []
      },
      "place_id": "ChIJKSyXq-edX0YRnKZlwpbmrjw",
      "rating": 4.1,
      "reference": "CmRRAAAA_78Ok93I-WjDiz94zGzUf5TEJY7aFPaCrKgp7UQHVKAX7yRJHZvkUXcpi9riuIV00d02cTq7N0sNgdUBoy1WyUEvU8i9P3WNoPMNglBYz-ZtKdxRfSBwIdHk9-gDjJP2EhAlNzUJXRy9oakRZ54HC-QcGhRfl509JwD1-6fBJbu6mJEupjhaRA",
      "scope": "GOOGLE",
      "types": [
        "convenience_store",
        "food",
        "store",
        "point_of_interest",
        "establishment"
      ],
      "vicinity": "Sturegatan 1, Sundbyberg"
    }
  ],
  "subway_station": [
    {
      "geometry": {
        "location": {
          "lat": 59.35434249999999,
          "lng": 17.9735417
        },
        "viewport": {
          "northeast": {
            "lat": 59.35561189999999,
            "lng": 17.9767256
          },
          "southwest": {
            "lat": 59.35053430000001,
            "lng": 17.9724804
          }
        }
      },
      "icon": "https://maps.gstatic.com/mapfiles/place_api/icons/generic_business-71.png",
      "id": "99c0a950c066fe57cad54846d950d82da440bd0f",
      "name": "Solna strand",
      "photos": [
        {
          "height": 3036,
          "html_attributions": [
            "<a href=\"https://maps.google.com/maps/contrib/100705890708823647819/photos\">Alexander Williamson</a>"
          ],
          "photo_reference": "CmRYAAAA-0yG4MMVRJ9-7Ho6gJC1y4WgiEFyXfH6QLS2lv3J-yNQ0D4nYrwqD6n386YUgi7d0Z7SeeaarjlsQFXY4uZUOAHz8GvZwEEAkWfdf7s302XAYpvbdRjG_ncW7Z9-nW_6EhDe7Jda7OMmOqlGmd9ypsOSGhTsKtPY85YQ5BnupO8xkk5W3AxlGg",
          "width": 4048
        }
      ],
      "place_id": "ChIJewhyfeWdX0YRVivJ0yL7mh8",
      "rating": 4.2,
      "reference": "CmRRAAAAOEXaCS_0kJ6N_SCZNCV7NSn_PVnZLV01JPGDQue3oRorByDTmb9cquGzTxD_BYyBllaN3eqz81PN354mYnMcwF6kHYSjCmjNtkb4d_TMMbAd_aCtZCYXEN1Q5a6bqyW2EhAUSO8mfsREFyhz-uA2FksuGhRMfgYKlwMxhjTxkzS1VvVW4BMXPw",
      "scope": "GOOGLE",
      "types": [
        "transit_station",
        "subway_station",
        "bus_station",
        "point_of_interest",
        "establishment"
      ],
      "vicinity": "Sweden"
    },
    {
      "geometry": {
        "location": {
          "lat": 59.3495465,
          "lng": 17.9856954
        },
        "viewport": {
          "northeast": {
            "lat": 59.35089548029151,
            "lng": 17.9870443802915
          },
          "southwest": {
            "lat": 59.34819751970849,
            "lng": 17.9843464197085
          }
        }
      },
      "icon": "https://maps.gstatic.com/mapfiles/place_api/icons/generic_business-71.png",
      "id": "f782eeda007ccd15d7461aed817177daa3f23572",
      "name": "Huvudsta",
      "photos": [
        {
          "height": 2336,
          "html_attributions": [
            "<a href=\"https://maps.google.com/maps/contrib/109587220103002134582/photos\">Chris huang</a>"
          ],
          "photo_reference": "CmRXAAAAp99tKDZgkCp0Nl81mZMEAa1BJPgSxrmwgqV07CWm-06wGIsNr9k_vdiTiX3kmp7yhn33RD0L-vpXeHbpTgIcN_t2DFTJ4ogFiVy2YKHhAP_1prB5WSvEvafaTRJD2ovUEhCrXPT8-CAxhA8BzVvhEc56GhT5xkvWjXmCDpEt_bG8xMfik3pRXA",
          "width": 4160
        }
      ],
      "place_id": "ChIJNc3xfPKdX0YRmC6Bjf4j3b0",
      "rating": 3.8,
      "reference": "CmRSAAAAu1bxuHZ3FnsdLFXyZTcd8qPXHxm9uRyUjQOFEIz0BgDxZvHqrU5BltZ7kt0mLXZmBT63LRK_x9owSSvXRfCWAiyGvDF54xalstX0rUBqJgFeqPhztyqWFOkOc757oquSEhDR9_uztSLAdrKiawWPWkDDGhQosGjxXsYFWIdvb35rMqm7aK9i3w",
      "scope": "GOOGLE",
      "types": [
        "subway_station",
        "transit_station",
        "point_of_interest",
        "establishment"
      ],
      "vicinity": "Sweden"
    }
  ],
  "bar": [
    {
      "geometry": {
        "location": {
          "lat": 59.35965520000001,
          "lng": 17.979507
        },
        "viewport": {
          "northeast": {
            "lat": 59.36095648029151,
            "lng": 17.9807462802915
          },
          "southwest": {
            "lat": 59.35825851970849,
            "lng": 17.9780483197085
          }
        }
      },
      "icon": "https://maps.gstatic.com/mapfiles/place_api/icons/restaurant-71.png",
      "id": "ecce94673fe9735181a6d4f9b6aa8022bc819a50",
      "name": "Alfredos Solna",
      "opening_hours": {
        "open_now": true,
        "weekday_text": []
      },
      "place_id": "ChIJD27ajuidX0YRwpqIj2Vt4D4",
      "rating": 3.5,
      "reference": "CmRRAAAApQsu8bEc-SjV5SJk6Ef_tSAXqZvDk-q4NyuiU1s4M0xuD5Rk8kyc5yYcYIhA9kuKJVPen2dh9mLuMKYa99BIAPgVxslWqTvpO5LSRmbTSeUXy_WnOYx5JngfHObe0LTmEhDQFTPJxdYPsOCF77IOhhEiGhQzZu3Qlij7Dxj7jzj5UuKpgoOStA",
      "scope": "GOOGLE",
      "types": [
        "restaurant",
        "bar",
        "food",
        "point_of_interest",
        "establishment"
      ],
      "vicinity": "Svetsarvägen 9, Solna"
    }
  ],
  "restaurant": [
    {
      "geometry": {
        "location": {
          "lat": 59.3498172,
          "lng": 17.9857992
        },
        "viewport": {
          "northeast": {
            "lat": 59.3509990302915,
            "lng": 17.9869733802915
          },
          "southwest": {
            "lat": 59.34830106970849,
            "lng": 17.9842754197085
          }
        }
      },
      "icon": "https://maps.gstatic.com/mapfiles/place_api/icons/restaurant-71.png",
      "id": "8ea3c2f7d258a544aa82932af391367b5e2ef428",
      "name": "Cave de Roi",
      "opening_hours": {
        "open_now": true,
        "weekday_text": []
      },
      "photos": [
        {
          "height": 2988,
          "html_attributions": [
            "<a href=\"https://maps.google.com/maps/contrib/118076643934594541959/photos\">Shahla Mombini</a>"
          ],
          "photo_reference": "CmRYAAAAd-ECTzcPIV6wVCUOJk_tAWzeuDxT3YiSeleiQB5Ud_N0Redp44TfgUVEKDcvwx-_ftfOMGF8ghwoBoKaaO52PxsSx7NLYOiXzvAR8jy9YuaQPkaTx6ybLpEx-nmFJTjbEhBCE-EWJG2W3GPvwX9pa_2QGhS0-laeoJqHfbz-PY7ur7pOwoZRYA",
          "width": 5312
        }
      ],
      "place_id": "ChIJ5wnThvKdX0YRJjDAUHazEiQ",
      "rating": 2.6,
      "reference": "CmRRAAAA6hVUyLzXWMErJb_vi3sKUsNn3dUHNIhVX0MU76Q8dcAF_jyqrocoMfRTTdZTZ2dJ2C45DXUfDmXn0cjmm82hDlqjK6aMYfy6yAr0OuVp-7cVUeMQjsFX4nH4z_MVLNiTEhCZhlK03bUSU3qX4vKCAFYeGhRetMaFMDGrH4wc_nioM9wCO3MOFg",
      "scope": "GOOGLE",
      "types": [
        "restaurant",
        "food",
        "point_of_interest",
        "establishment"
      ],
      "vicinity": "Storgatan 70, Solna"
    },
    {
      "geometry": {
        "location": {
          "lat": 59.3589391,
          "lng": 17.9887256
        },
        "viewport": {
          "northeast": {
            "lat": 59.35989293029151,
            "lng": 17.98940335
          },
          "southwest": {
            "lat": 59.3571949697085,
            "lng": 17.98669234999999
          }
        }
      },
      "icon": "https://maps.gstatic.com/mapfiles/place_api/icons/generic_business-71.png",
      "id": "f02fd01ced919ce7a064025e62688fc9e2589fd4",
      "name": "Sporthallen i Solna AB",
      "photos": [
        {
          "height": 1836,
          "html_attributions": [
            "<a href=\"https://maps.google.com/maps/contrib/115900380438247747296/photos\">Murat Asal</a>"
          ],
          "photo_reference": "CmRYAAAAjg5FwncPdGIlnsUgnuGhjw5C6xZyQKkMCvB8nD8Uv6yguetSxO1GgeTxRN__pfcY857fXzwjQViQBnmbGY_B1hGWszGJTN_UXU8MNtSsmwA5e1rJw8bT2JcGboLM-RkOEhDmBQE2pF5j3iUcUU2w7t1hGhSXa0sJmh7KR0EmhpZVyInGW9Efkg",
          "width": 3264
        }
      ],
      "place_id": "ChIJ65ppfemdX0YRmbFhldnSX48",
      "rating": 3.8,
      "reference": "CmRSAAAA5xUjTkMD9X_RIqGzwN0BHvkREZerpmCVpfQg5G-79s8kR2Tp3JxLC8sEd6fnnOE1LJIW_Oxk2cYUSJyPmKoS6pQIGf-JQooWyHpW6Ayrn-B9hNs3z_QotfEiU4eFG1wyEhAj7-7h_hs1U0F9vIMlJSPJGhQAqfKg0d9rXh8Sp66ftD721WXdWQ",
      "scope": "GOOGLE",
      "types": [
        "restaurant",
        "food",
        "point_of_interest",
        "establishment"
      ],
      "vicinity": "Ankdammsgatan 46, Solna"
    },
    {
      "geometry": {
        "location": {
          "lat": 59.35355569999999,
          "lng": 17.9715498
        },
        "viewport": {
          "northeast": {
            "lat": 59.35478063029151,
            "lng": 17.9730781802915
          },
          "southwest": {
            "lat": 59.35208266970849,
            "lng": 17.9703802197085
          }
        }
      },
      "icon": "https://maps.gstatic.com/mapfiles/place_api/icons/restaurant-71.png",
      "id": "865333926ba05e4ede3a858619fb26ff9d2eb75c",
      "name": "Solna Strands Kantin AB",
      "photos": [
        {
          "height": 2988,
          "html_attributions": [
            "<a href=\"https://maps.google.com/maps/contrib/104184930983136729362/photos\">Pavel Maira</a>"
          ],
          "photo_reference": "CmRYAAAAkmbrrP54Abt6tCkDgxUTp7n6_9a6M_ZMBPsxg6kj8s-bXjFYXRe6S9HEMgo0hD9iqNM2F2S9omfPqtNA0iUqMnjfjwcDV9KGvjiC38qC0-cE_rP_VT7dBbex4xk6WTW0EhDZv9be4haQOIWrvhqXMwlyGhRzliLYxfBNGABWJ_ia14Zcut-JBw",
          "width": 5312
        }
      ],
      "place_id": "ChIJFUiwcuWdX0YRjferJTP5_dQ",
      "rating": 3.8,
      "reference": "CmRSAAAAdzbTZYuYGoxdqEoIC-piMcXeqAVmWPgCeIrS2mu9hyNHWm0RBSi3W4F9EC7RT-e6dcanp45JTIRH6hcwzRGomNhY1PjIjm8TsWHJuti6d36n8sz3GzmkFl5IdcI87ofSEhC5ArnR9aDH6IvBaukbv8QfGhQggAUJD1o1d4AS9nIjMtKOhOXzVA",
      "scope": "GOOGLE",
      "types": [
        "restaurant",
        "food",
        "point_of_interest",
        "establishment"
      ],
      "vicinity": "Solna strandväg 98, Solna"
    },
    {
      "geometry": {
        "location": {
          "lat": 59.3553659,
          "lng": 17.9747379
        },
        "viewport": {
          "northeast": {
            "lat": 59.3566330302915,
            "lng": 17.9763647802915
          },
          "southwest": {
            "lat": 59.35393506970849,
            "lng": 17.9736668197085
          }
        }
      },
      "icon": "https://maps.gstatic.com/mapfiles/place_api/icons/restaurant-71.png",
      "id": "368f2e0a801f3e35dd0cbdc73720ffcecd6787e8",
      "name": "Restaurang Smultronet",
      "opening_hours": {
        "open_now": false,
        "weekday_text": []
      },
      "place_id": "ChIJyZZOieWdX0YRhWUgCzn3cms",
      "rating": 3.3,
      "reference": "CmRRAAAAEriK3v7IM0gblEqwQ1BRMhAaf6-0-6x7tdX83mGNbue7I4j2eO6o_LFqnlKgPkdV3f1X6-EDmraZmjULA3NPulyOpXGKWrcs_0OZphJCOMpPDB3_lmm8IxSELqcskM0vEhArYga2zn7Hc-lzMX4t6MD6GhRU8KdvhNey22XWEggPe0aIuLWTmg",
      "scope": "GOOGLE",
      "types": [
        "restaurant",
        "food",
        "point_of_interest",
        "establishment"
      ],
      "vicinity": "Vretenvägen 6, Solna"
    },
    {
      "geometry": {
        "location": {
          "lat": 59.35479909999999,
          "lng": 17.9772213
        },
        "viewport": {
          "northeast": {
            "lat": 59.3561394802915,
            "lng": 17.9781975802915
          },
          "southwest": {
            "lat": 59.35344151970849,
            "lng": 17.9754996197085
          }
        }
      },
      "icon": "https://maps.gstatic.com/mapfiles/place_api/icons/restaurant-71.png",
      "id": "b0a129a0239c006d4c71dcbb93587cef3ec1a143",
      "name": "Sabis Solna Gate",
      "place_id": "ChIJATvyc--dX0YRCX0-cJaiuAM",
      "rating": 3.3,
      "reference": "CmRRAAAAdN4PRMfllE5ESJRmITpXodHcaXJ0TL6jHeeQVK6masVU350ICPZJdI2RXY21aRIq_izGgclZiozhSuGM0y1P-P0rLchvtH4eh8E8751G7ep2CbVDWoquiTW_iShzobOnEhAkrbfdIQTBRj_12mriOofIGhQ4n9AJsJ8_cTRjdz1ydyFkU4u8wA",
      "scope": "GOOGLE",
      "types": [
        "restaurant",
        "food",
        "point_of_interest",
        "establishment"
      ],
      "vicinity": "Hemvärnsgatan 9, Solna"
    },
    {
      "geometry": {
        "location": {
          "lat": 59.3568429,
          "lng": 17.9767756
        },
        "viewport": {
          "northeast": {
            "lat": 59.35830488029151,
            "lng": 17.97786678029151
          },
          "southwest": {
            "lat": 59.35560691970849,
            "lng": 17.9751688197085
          }
        }
      },
      "icon": "https://maps.gstatic.com/mapfiles/place_api/icons/restaurant-71.png",
      "id": "73e37e466a6e2648b8c17fa1eb6482229cf83550",
      "name": "Restaurang S",
      "opening_hours": {
        "open_now": false,
        "weekday_text": []
      },
      "photos": [
        {
          "height": 3096,
          "html_attributions": [
            "<a href=\"https://maps.google.com/maps/contrib/108825801446920839715/photos\">Péter Sarkady</a>"
          ],
          "photo_reference": "CmRYAAAA3sIJqlU2n4lOJEhX39qlJUQRxXozj8zOYQ-0tGkSi3Kjw9oVPrST-nwwuxHfLSx18kCZTBgCWA--KCXse9SaMh3SVaUTDGoa2s8cZx6QSAuQ5kch2EteRcAPr4bPQoZVEhA62XtUQiiS8_EaLFPef3itGhSzsdZErVZimn3Aq0uQGIFw-W6Z8A",
          "width": 4128
        }
      ],
      "place_id": "ChIJKSEhUe-dX0YR6fnJ4Hbmlxo",
      "rating": 4.4,
      "reference": "CmRRAAAAqCIi-T2WfQqIYvshzOMz0RFnhlb-eyXuMEloAo2ExARfi8Ilpnvsa1C5a7w8ZnCXgD4Dbgqf8Ac0INAbF8uPbUGhudhf6DLQHkxrwSACZ8Txf3zHcqlsdAs_g5vDlHK_EhCaAAOKQNKJ4-Sbp7PWxH9WGhQBZ5Ke8Kq0BwFwWjVAuEPyp7oO2Q",
      "scope": "GOOGLE",
      "types": [
        "restaurant",
        "food",
        "point_of_interest",
        "establishment"
      ],
      "vicinity": "Röntgenvägen 2, Solna"
    },
    {
      "geometry": {
        "location": {
          "lat": 59.349691,
          "lng": 17.9860485
        },
        "viewport": {
          "northeast": {
            "lat": 59.3508939302915,
            "lng": 17.9872691802915
          },
          "southwest": {
            "lat": 59.34819596970848,
            "lng": 17.9845712197085
          }
        }
      },
      "icon": "https://maps.gstatic.com/mapfiles/place_api/icons/restaurant-71.png",
      "id": "7af7cbfef93c152c3faa91b255a03b5d5e3d62a6",
      "name": "Restaurang & Pizzeria Lejon",
      "opening_hours": {
        "open_now": true,
        "weekday_text": []
      },
      "photos": [
        {
          "height": 2988,
          "html_attributions": [
            "<a href=\"https://maps.google.com/maps/contrib/107789877684536700811/photos\">Tolga Baran</a>"
          ],
          "photo_reference": "CmRYAAAAJcP7tyP8n9nk2uuaeiNrtGGQxAwhliotBwqiKwv6ivASjQ4hxhcV34pMMayqOV0LhcDqt5zfqbdntR3pa2ahAcVcWDbeRNoWQB5e9NexuS-MZGthS3Qol9naK2GCvegTEhAnNJx8Zque3CpsYEPz4y-tGhQSX10WLSsQ_CeGiIAiysXd4SN4QQ",
          "width": 5312
        }
      ],
      "place_id": "ChIJj1kLfvKdX0YREPJHgtbjFrk",
      "rating": 3.5,
      "reference": "CmRSAAAAqCZH_OvsOsENxfAVCYwUHUrsgAgHqBLo7douiMxKiaCPAYRoYzpYmWj4wXZ2r6qx8zdD5uv4VIaZDhKm1ufvbm3uC_SeBC3pRUv3Yduzg2bS7JmvbQ1AmO_kUQZdOnefEhBdN4VFi5_rD70IYKQVaomeGhQFUK1z9ODjQQqcFEn8WemTJOsbXw",
      "scope": "GOOGLE",
      "types": [
        "restaurant",
        "food",
        "point_of_interest",
        "establishment"
      ],
      "vicinity": "Storgatan 68, Solna"
    },
    {
      "geometry": {
        "location": {
          "lat": 59.3534766,
          "lng": 17.9757085
        },
        "viewport": {
          "northeast": {
            "lat": 59.3548921802915,
            "lng": 17.9768402802915
          },
          "southwest": {
            "lat": 59.35219421970849,
            "lng": 17.9741423197085
          }
        }
      },
      "icon": "https://maps.gstatic.com/mapfiles/place_api/icons/restaurant-71.png",
      "id": "b5d7a8f38659d237c4eadd569ec96bbdcb320e85",
      "name": "Trankil Mat & Möte",
      "opening_hours": {
        "open_now": false,
        "weekday_text": []
      },
      "photos": [
        {
          "height": 4160,
          "html_attributions": [
            "<a href=\"https://maps.google.com/maps/contrib/113081536842977625087/photos\">Peo Engström</a>"
          ],
          "photo_reference": "CmRYAAAAYf6CKASxy5fCob2a1ew5XtdXYWG3dOi4Ahe0MZQgQdH-6I_vk4HBI6IKVTC0qlyYBq-5QvWaYoWSrFTOC0gFGJS-a7Z-yl2EpAc1CxEPTT1XLpNSqC92HIzJsHs2staaEhBDBRi5UWfM3LeL6HpQNFUFGhTn9sA7h-BTVOfw-Z2NKH0PQ0npaw",
          "width": 2340
        }
      ],
      "place_id": "ChIJrw5Ylu-dX0YRf4F1LD3NoRA",
      "rating": 3.9,
      "reference": "CmRRAAAALNryKXGcDUABd-f-RPtjil_Oql6vARMTU68IN4e-qNhsbxlANbrx1Ag9oO7hbxux4TztOUKGxj603uf3OrLekgxusCDTc9nXSGDBUloTD7q4PrJjQZXERV2S1u-Gt_2LEhB7RXKBRMJLMy8kkAIdRuorGhRRTA2guD1Xb16TZZ6kMK46pO2DpQ",
      "scope": "GOOGLE",
      "types": [
        "meal_takeaway",
        "restaurant",
        "food",
        "point_of_interest",
        "establishment"
      ],
      "vicinity": "Hemvärnsgatan 15, Solna"
    },
    {
      "geometry": {
        "location": {
          "lat": 59.3571433,
          "lng": 17.9747668
        },
        "viewport": {
          "northeast": {
            "lat": 59.35852283029151,
            "lng": 17.9762975302915
          },
          "southwest": {
            "lat": 59.35582486970851,
            "lng": 17.97359956970849
          }
        }
      },
      "icon": "https://maps.gstatic.com/mapfiles/place_api/icons/restaurant-71.png",
      "id": "c9fbe8de7a9e6775ec72ae64dad241e0e056ccac",
      "name": "Pizzeria Cara Mia",
      "photos": [
        {
          "height": 3480,
          "html_attributions": [
            "<a href=\"https://maps.google.com/maps/contrib/115509061824973297732/photos\">Richard Åkerblad</a>"
          ],
          "photo_reference": "CmRYAAAAHtj9-NMTdnhPm8sQWNdvFRbXcklcvGmo-KML1yvjrdOFGaiHLHMqTGUcYBluuphISQEHg4NwxiGPHDOgLjEiNz7frX5Mx-Kfhs8hxNsKxwIfufm8Np27IicDvRoUrldTEhDKsTKLy50VVBCBmIyHzlm-GhTzxz57PhmiqxugXLm6Dl30XW3CYw",
          "width": 4640
        }
      ],
      "place_id": "ChIJbyvO5OWdX0YRlrW83Zth3hA",
      "rating": 3.9,
      "reference": "CmRRAAAAFRKQeqpa4CRApY9xgUtr0SI6iMB8wigkwDE7TSYRjSjXHcLY9XHpXBKjRAFZl8enBlqeGdC3-jSFRZWNaLmBFkFkEo3vOulvWuxNPZo5ZTLBTUJ-nxFG_8V-bY5BVVwqEhB2IhIjh-ytaF8PNM5HTg7ZGhQPvSCJbbtqqT8KS1Pemvr_vd5K6A",
      "scope": "GOOGLE",
      "types": [
        "restaurant",
        "food",
        "point_of_interest",
        "establishment"
      ],
      "vicinity": "Landsvägen 13, Sundbyberg"
    },
    {
      "geometry": {
        "location": {
          "lat": 59.354627,
          "lng": 17.9734642
        },
        "viewport": {
          "northeast": {
            "lat": 59.35605458029151,
            "lng": 17.9747970302915
          },
          "southwest": {
            "lat": 59.3533566197085,
            "lng": 17.9720990697085
          }
        }
      },
      "icon": "https://maps.gstatic.com/mapfiles/place_api/icons/shopping-71.png",
      "id": "67b692a1b76f3fec20776d01346fcaa766f7eeec",
      "name": "Pressbyrån",
      "opening_hours": {
        "open_now": false,
        "weekday_text": []
      },
      "place_id": "ChIJv_XylOWdX0YRV-iA1wCwcb4",
      "rating": 4,
      "reference": "CmRSAAAA7ab9B1AtfytzhMNSwAGAlISU5QNPDb746usSsc0HxxR2AqI_r5PSBIQez0f57DecvQguJgl-f44miGG85j2_GMzRweu7Bcx3U6vw1X4A-GzSAbthPcURHp-J0YexnPbhEhCrxjjEjjuLCO-JY-Fo3HaCGhQ1DnQaEZNq3BOKPmACfNgjuisEMA",
      "scope": "GOOGLE",
      "types": [
        "convenience_store",
        "book_store",
        "restaurant",
        "food",
        "store",
        "point_of_interest",
        "establishment"
      ],
      "vicinity": "Korta gatan 7, Solna"
    },
    {
      "geometry": {
        "location": {
          "lat": 59.357642,
          "lng": 17.9746933
        },
        "viewport": {
          "northeast": {
            "lat": 59.3589988302915,
            "lng": 17.9761805302915
          },
          "southwest": {
            "lat": 59.35630086970849,
            "lng": 17.9734825697085
          }
        }
      },
      "icon": "https://maps.gstatic.com/mapfiles/place_api/icons/restaurant-71.png",
      "id": "43a0aaa211f9ced40bd8f4b9fb3b0eee62746aca",
      "name": "Johan på hörnet AB",
      "opening_hours": {
        "open_now": false,
        "weekday_text": []
      },
      "photos": [
        {
          "height": 3120,
          "html_attributions": [
            "<a href=\"https://maps.google.com/maps/contrib/116768646013381867842/photos\">Hubert K</a>"
          ],
          "photo_reference": "CmRYAAAA1J1TLYlkSgY8VvGcbgDTFonaMzxcpyek6pDw4GV2QkC_hB2V4MVSvqpQXYJvpgwhgzfxqI4YGG2MsXdTjcIFlrX6IYqIqhf9IJAhVGhgzlNzpJXfHpUvzkVgoDaYpJsVEhAcK8uVQz-o6mozqp-HvebGGhQUa7iVrOjJh7xIH_OBhZBOlI2edg",
          "width": 4160
        }
      ],
      "place_id": "ChIJ8blzCuadX0YRbzYRCr_3Ff0",
      "rating": 4.7,
      "reference": "CmRSAAAA--kLkFGexltIjPeDZNOP7RrEhmRRytUk0jO8cG_iu1NL5RsUZDMC35ewx0q6fmziLKHXpZKOs88DjwHaeLp_Zr5DK9U_E0hkHtFzkHKaNP4IcKhZHeEutou5g6ahm5bOEhA1uPGuFRGL1Yvr945P-4AOGhRkl8zKOhFtqA0csnUrVWEwE9ndXw",
      "scope": "GOOGLE",
      "types": [
        "restaurant",
        "food",
        "point_of_interest",
        "establishment"
      ],
      "vicinity": "Landsvägen 15B, Sundbyberg"
    },
    {
      "geometry": {
        "location": {
          "lat": 59.35678849999999,
          "lng": 17.9706802
        },
        "viewport": {
          "northeast": {
            "lat": 59.35814438029151,
            "lng": 17.9721607302915
          },
          "southwest": {
            "lat": 59.35544641970849,
            "lng": 17.9694627697085
          }
        }
      },
      "icon": "https://maps.gstatic.com/mapfiles/place_api/icons/restaurant-71.png",
      "id": "ee75ea800875a0dd6687bb1340712a4925873eba",
      "name": "Restaurang Chili",
      "opening_hours": {
        "open_now": false,
        "weekday_text": []
      },
      "photos": [
        {
          "height": 4128,
          "html_attributions": [
            "<a href=\"https://maps.google.com/maps/contrib/115998388923431000270/photos\">Elisa Alanen</a>"
          ],
          "photo_reference": "CmRYAAAAu7KtgfNw0q1uH3bVuXKWBl37tMF83lXhSRU7EH9ivT21cZyZmsiBQrST-cpZsoZ1Kx2aHTzyc09eD3ADJ4s0N0QYZ1xVetDq3yjowYz2dUHM1RWDEP3bqLwiz_2tP3DIEhA1Mkmlh3P3TPxA2Ast2aevGhSO9hsIQV5YhMANIZnPFuiUnqOdlg",
          "width": 3096
        }
      ],
      "place_id": "ChIJI-leNeSdX0YRNtP5LB8uS_s",
      "rating": 3.5,
      "reference": "CmRSAAAAPhxCHbDU1S3IMYkxNVFO8HHi60gfJS7p1sDhtYXjU-wTBQm5fY3K7ToF773jV3K2AJ1YcVFf4A08mYnK_zUfdmzea47T30YZvHxRdZF3DNPD3jp3MS17uWaT2-4pqHarEhCwfEIypiz94jshTYM3ddLnGhTiHQN51tuLvJRGC9BPNK4xNLVS0Q",
      "scope": "GOOGLE",
      "types": [
        "restaurant",
        "food",
        "point_of_interest",
        "establishment"
      ],
      "vicinity": "Albygatan 119, Sundbyberg"
    },
    {
      "geometry": {
        "location": {
          "lat": 59.3556921,
          "lng": 17.9887299
        },
        "viewport": {
          "northeast": {
            "lat": 59.35696448029151,
            "lng": 17.99029293029151
          },
          "southwest": {
            "lat": 59.3542665197085,
            "lng": 17.9875949697085
          }
        }
      },
      "icon": "https://maps.gstatic.com/mapfiles/place_api/icons/restaurant-71.png",
      "id": "dc4cb78eea4cb5d3163b1142a9e97a5d7a404f2c",
      "name": "Hongthai",
      "opening_hours": {
        "open_now": true,
        "weekday_text": []
      },
      "photos": [
        {
          "height": 2160,
          "html_attributions": [
            "<a href=\"https://maps.google.com/maps/contrib/115393346378695735157/photos\">Anders Larsson</a>"
          ],
          "photo_reference": "CmRYAAAAxZ2BQzA9zWjLIg_1F48ODQEg-V3x1UI15nUmpkud5AddrbzYoYngEmonO0MCFqIYaGBUfZ_zTME2wkiYLgfdKg2JwYCQIwi04LAR8V6B06g0Isl7Y7NY1farcjq_88H4EhB-WKEXRP5uM1Cm3ntxZoSPGhQX-8QAQfQ4VugrNXPK5xgwJwIZSw",
          "width": 3840
        }
      ],
      "place_id": "ChIJCxwCiuudX0YR0T7K65M2IEc",
      "rating": 3.8,
      "reference": "CmRRAAAACajPODZ_YeKye8jBkVkJecfSpXHAMVBxcm83pJOAgmHxSlwLgHFMUgeeg5Fpy9if5hVcnnAuLmHjaoYs7IGwdEDb3QDHJSeckVMQhLL2lAkLfrN58VWq5OP3KBsYFLIOEhDKWFnfh8uCyzK2_8qHjaleGhT67v3M2NA1uxDbbWzZw7TZ-zsaxg",
      "scope": "GOOGLE",
      "types": [
        "restaurant",
        "food",
        "point_of_interest",
        "establishment"
      ],
      "vicinity": "Ankdammsgatan 19, Solna"
    },
    {
      "geometry": {
        "location": {
          "lat": 59.35342779999999,
          "lng": 17.9755641
        },
        "viewport": {
          "northeast": {
            "lat": 59.3548336302915,
            "lng": 17.9767277302915
          },
          "southwest": {
            "lat": 59.35213566970849,
            "lng": 17.9740297697085
          }
        }
      },
      "icon": "https://maps.gstatic.com/mapfiles/place_api/icons/restaurant-71.png",
      "id": "7c1cd9435de03f7bb5f426a08e46b620d7b9075c",
      "name": "Trankil Mat & Möte",
      "opening_hours": {
        "open_now": false,
        "weekday_text": []
      },
      "place_id": "ChIJIaQclO-dX0YRZusnrtaH-tQ",
      "reference": "CmRSAAAAxxEAbKqFOlSPEl6xrLlyns64o7pPA5cn_KN0Vb5oDJMrhiyEYGVM7xR_bzKS32JfBN7SgtmqcI4RAMWm9upx5OksDYBAjZHQC7Z6IJkQ5K2umBVNrxSGgKBjyB2lJqg9EhCg5MRiNR8RsQ9WhBaxd9wRGhSS8OyHjIcPbXfO6ldSA5RDDXCBmQ",
      "scope": "GOOGLE",
      "types": [
        "restaurant",
        "food",
        "point_of_interest",
        "establishment"
      ],
      "vicinity": "Hemvärnsgatan 15, Solna"
    },
    {
      "geometry": {
        "location": {
          "lat": 59.3549889,
          "lng": 17.9739747
        },
        "viewport": {
          "northeast": {
            "lat": 59.3564016802915,
            "lng": 17.9752180302915
          },
          "southwest": {
            "lat": 59.35370371970849,
            "lng": 17.97252006970849
          }
        }
      },
      "icon": "https://maps.gstatic.com/mapfiles/place_api/icons/restaurant-71.png",
      "id": "04641c4203b79a48b29744a982df4cdc793562d0",
      "name": "Reload Superfoodbar",
      "opening_hours": {
        "open_now": false,
        "weekday_text": []
      },
      "photos": [
        {
          "height": 3024,
          "html_attributions": [
            "<a href=\"https://maps.google.com/maps/contrib/106609906860637468938/photos\">Erik Björkén</a>"
          ],
          "photo_reference": "CmRYAAAAShPmphXkG_hBT5aPNXLa778ENs2iRWjDr19UX2Pe5BcJI1-ZdzIzaXW31WcbEQohuvvlLLFu5-mgmghm8G3vZT3aMl56L5Sxhd-5CyxelT-ugAV237vXgHt2lYoAJEQeEhATSaeZvDYyfQKg3PHLBg9yGhR-4o8M-m8UiHOE4EcqoQfa44e11g",
          "width": 4032
        }
      ],
      "place_id": "ChIJG52ag-WdX0YRkS7EIIqEnl4",
      "reference": "CmRRAAAAcKTzWjhYwgKw9KcCEB25LYX_unfpnxJ5IPCxyWVvpvoNMMTuplBFA77-sUpitr7Mp4PCzwxZruIPKZa4eI11fOt_Jek98oHoEAw9RmD8J6fb8DP8ranfwOxjXx5hjdLHEhBPLDlzWz6MfJmyUwAxNdcWGhRk0vr0r-4eFfwafgs1VSagoMiJEQ",
      "scope": "GOOGLE",
      "types": [
        "restaurant",
        "food",
        "point_of_interest",
        "establishment"
      ],
      "vicinity": "Torggatan 2, Solna"
    },
    {
      "geometry": {
        "location": {
          "lat": 59.3554688,
          "lng": 17.9742127
        },
        "viewport": {
          "northeast": {
            "lat": 59.3566650302915,
            "lng": 17.9760801302915
          },
          "southwest": {
            "lat": 59.3539670697085,
            "lng": 17.97338216970849
          }
        }
      },
      "icon": "https://maps.gstatic.com/mapfiles/place_api/icons/restaurant-71.png",
      "id": "46e8ea62a8172e726fed11631987977375bded58",
      "name": "Akiyama Sushi Bar",
      "opening_hours": {
        "open_now": false,
        "weekday_text": []
      },
      "place_id": "ChIJpSmMheWdX0YRg-ZCzNvKXpU",
      "reference": "CmRSAAAA5l4OUMkN-I8DkqDqylFDxc4QwmfRxOztrwmGPwYFTelhFyI8-5hOJAegbAnWdz80pZ7CfP0eqbCG7sJkA90NkA5bDe0Rav8eHRdlwCoD5WDptcyoPsVgOiGZSMpCv_4CEhA9bEav65JBuQ6_3xvEkcWVGhRqjSYElUUCFgGhbJ7D3c4bwRgH2w",
      "scope": "GOOGLE",
      "types": [
        "restaurant",
        "food",
        "point_of_interest",
        "establishment"
      ],
      "vicinity": "Vretenvägen 10, Solna"
    },
    {
      "geometry": {
        "location": {
          "lat": 59.3571975,
          "lng": 17.9704631
        },
        "viewport": {
          "northeast": {
            "lat": 59.35849363029151,
            "lng": 17.9718414802915
          },
          "southwest": {
            "lat": 59.35579566970849,
            "lng": 17.9691435197085
          }
        }
      },
      "icon": "https://maps.gstatic.com/mapfiles/place_api/icons/restaurant-71.png",
      "id": "10ff094acf4e2d3f0cf30bd4bf28ae5237fa2bf8",
      "name": "Curry Corner AB",
      "opening_hours": {
        "open_now": true,
        "weekday_text": []
      },
      "photos": [
        {
          "height": 2268,
          "html_attributions": [
            "<a href=\"https://maps.google.com/maps/contrib/110020677653983448904/photos\">Niklas Pivic</a>"
          ],
          "photo_reference": "CmRYAAAAslYwq2P1zPXydVLlzDLxzAh-FbS2wHz218HuvHpbyOw4Jf_mbfPoU5WDg1lJq0y2b_pvQsTrY0uYHJbYt3necZJORJ4xC4RyBVOTL8fcHCV-KLlh0OjHnCgA4jd3PVyxEhAxVkkh2LBZC8lAm3ibmw7YGhSdOWBig2L9BLyVkCqwdCk2ITfW_w",
          "width": 4000
        }
      ],
      "place_id": "ChIJNXOrNuSdX0YRdIjBksExPPw",
      "rating": 3.1,
      "reference": "CmRSAAAA_527Q2p72SmXWW50JGA9kN5cQPcHJEsnvm703KwgH8IG39mgnV_6gX4aGTwnp0DKoWfEmL5SvfkV2qiNff-F6kIJa6PbSJN4zU6BzeQH_U_reutqHhe12bToVrXHEWTuEhD_sAWfW-s88RmdQdIzG8rpGhQmb0nZEApDlSuG5xATrM2U8R1GPA",
      "scope": "GOOGLE",
      "types": [
        "restaurant",
        "food",
        "point_of_interest",
        "establishment"
      ],
      "vicinity": "Trädgårdsgatan 18, Sundbyberg"
    },
    {
      "geometry": {
        "location": {
          "lat": 59.3537019,
          "lng": 17.9711754
        },
        "viewport": {
          "northeast": {
            "lat": 59.3550508802915,
            "lng": 17.9725243802915
          },
          "southwest": {
            "lat": 59.35235291970849,
            "lng": 17.9698264197085
          }
        }
      },
      "icon": "https://maps.gstatic.com/mapfiles/place_api/icons/restaurant-71.png",
      "id": "8460e1244603f361b43928bb9c82c37ee3516596",
      "name": "Modis Restauranger AB",
      "place_id": "ChIJAQAAQOWdX0YRjlUceSVNgX4",
      "reference": "CmRRAAAAv1aTsuq_bynGs2NFi7w95Bqy_a53zxsiJXhWLoayXE6vHFgoUFOToRs4DpVYaOCAaigldFXg-XIwmMRiyWtXLw5g-o3iqYNBgSHTyUbEAR8wbxmLHg5IbwnhsPFyGcgrEhD36h6ymsE27JgwhjT8T3AnGhRadgs3-OWBEX5c1V5ePMsK9M6xzg",
      "scope": "GOOGLE",
      "types": [
        "restaurant",
        "food",
        "point_of_interest",
        "establishment"
      ],
      "vicinity": "Solna"
    },
    {
      "geometry": {
        "location": {
          "lat": 59.3558165,
          "lng": 17.9714655
        },
        "viewport": {
          "northeast": {
            "lat": 59.3571570802915,
            "lng": 17.97270853029151
          },
          "southwest": {
            "lat": 59.35445911970849,
            "lng": 17.9700105697085
          }
        }
      },
      "icon": "https://maps.gstatic.com/mapfiles/place_api/icons/restaurant-71.png",
      "id": "d4bb92d73db90cad6c421f11def2a2cface4c274",
      "name": "Fattoush Solna",
      "opening_hours": {
        "open_now": false,
        "weekday_text": []
      },
      "photos": [
        {
          "height": 3120,
          "html_attributions": [
            "<a href=\"https://maps.google.com/maps/contrib/109668826424586623724/photos\">Gabriel Josefson</a>"
          ],
          "photo_reference": "CmRYAAAARWaAgCDBflHqtF8BSNPmpQzcaeN7eYj1YqmJwEetUMtQ-ON0Zzm7QnPGmwn2YPjnrtqRR5_7EBqeUN9nzAKJzFE-oY801eYR2eT0WDkLmAgUODr6ntqetKC3Ggt3uP9PEhAEzlb5Uxvimq2PpG-RmTbWGhQkTvF-nkDdEgL8sh1hlu9MmLyF-w",
          "width": 4160
        }
      ],
      "place_id": "ChIJbRZfpeWdX0YRqhD5Nal9a90",
      "rating": 3.8,
      "reference": "CmRSAAAAW6Wzw7-Phx5N3I34Z2d0nT6mK5usLg_GrMLinZ9CpXbhCsISN21rYrG0JiO5dI9YSTcePtp__7s--myoPrMJ724AdMHZeUPnTGxF9w9sgOj6dREVpef_kkbfLg7mg_m-EhDFGq5mpettYtU2Z1ux1-b-GhTI9urgR2Ixy3a4TWlBJlZuER4Lvg",
      "scope": "GOOGLE",
      "types": [
        "restaurant",
        "food",
        "point_of_interest",
        "establishment"
      ],
      "vicinity": "Solna strandväg 3, Solna"
    },
    {
      "geometry": {
        "location": {
          "lat": 59.35598759999999,
          "lng": 17.9707878
        },
        "viewport": {
          "northeast": {
            "lat": 59.3573492302915,
            "lng": 17.9723213802915
          },
          "southwest": {
            "lat": 59.35465126970848,
            "lng": 17.9696234197085
          }
        }
      },
      "icon": "https://maps.gstatic.com/mapfiles/place_api/icons/restaurant-71.png",
      "id": "309fcf089c9f7ced181db2268f4cb78f60e07475",
      "name": "Café Strand | Brödleverantören AB",
      "opening_hours": {
        "open_now": false,
        "weekday_text": []
      },
      "place_id": "ChIJuc1qsuWdX0YR0RINCQqZzxw",
      "rating": 4.3,
      "reference": "CmRRAAAAKwMGGeFWeo2QCn0m9NzCZ2-F0VpZHxZ5kzsWmOdY413B_xObh5ZnLsN-K1DkNY6m1jiGlnYoJ5UqVj7VDOHw8oztdGqQ24MXzEjKlPWPTkm3Tq8zgdI5Xd5zzi-ioiG5EhCfHjqEG8XM6GfVNq0GMl4vGhRsizySkc5CISIBX0zxFpx_5844iA",
      "scope": "GOOGLE",
      "types": [
        "bakery",
        "cafe",
        "restaurant",
        "food",
        "store",
        "point_of_interest",
        "establishment"
      ],
      "vicinity": "Solna strandväg 2, Solna"
    }
  ]
}